Time,GPS time, GPS status, Latitude, Lontitude, Altitude, Easting, Northing, Velocity, Heading, Roll,Pitch,Yaw,Accel_Roll,Accel_Pitch,Accel_Yaw,Rate_Roll,Rate_Pitch,Rate_Yaw
0.0,31314.7, 4, 43.0733531620, 141.3380115583,15.011000, 527517.9797,4769016.0266,0.00,88.360, 0.000,0.000,0.000,0.000,0.000,0.000,0.000,0.000,0.000
0.5,31315.2, 4, 43.0733531700, 141.3380116167,15.020000, 527517.9844,4769016.0275,0.00,289.750, 0.000,0.000,0.000,0.000,0.000,0.000,0.000,0.000,0.000
1.0,31315.7, 4, 43.0733531582, 141.3380116045,15.021000, 527517.9834,4769016.0262,0.00,175.490, 0.000,0.000,0.000,0.000,0.000,0.000,0.000,0.000,0.000
1.5,31316.2, 4, 43.0733531215, 141.3380116152,15.022000, 527517.9843,4769016.0221,0.00,16.610, 0.000,0.000,0.000,0.000,0.000,0.000,0.000,0.000,0.000
2.0,31316.7, 4, 43.0733531225, 141.3380116047,15.025000, 527517.9835,4769016.0222,0.00,135.560, 0.000,0.000,0.000,0.000,0.000,0.000,0.000,0.000,0.000
2.5,31317.2, 4, 43.0733531027, 141.3380116150,15.014000, 527517.9843,4769016.0200,0.00,174.830, 0.000,0.000,0.000,0.000,0.000,0.000,0.000,0.000,0.000
3.0,31317.7, 4, 43.0733531147, 141.3380115863,15.013000, 527517.9820,4769016.0214,0.00,270.010, 0.000,0.000,0.000,0.000,0.000,0.000,0.000,0.000,0.000
3.5,31318.2, 4, 43.0733531033, 141.3380115888,15.017000, 527517.9822,4769016.0201,0.00,236.620, 0.000,0.000,0.000,0.000,0.000,0.000,0.000,0.000,0.000
4.0,31318.7, 4, 43.0733531058, 141.3380115735,15.018000, 527517.9809,4769016.0204,0.00,194.290, 0.000,0.000,0.000,0.000,0.000,0.000,0.000,0.000,0.000
4.5,31319.2, 4, 43.0733530893, 141.3380115698,15.021000, 527517.9807,4769016.0186,0.00,352.080, 0.000,0.000,0.000,0.000,0.000,0.000,0.000,0.000,0.000
5.0,31319.7, 4, 43.0733530948, 141.3380115587,15.017000, 527517.9797,4769016.0192,0.00,239.430, 0.000,0.000,0.000,0.000,0.000,0.000,0.000,0.000,0.000
5.5,31320.2, 4, 43.0733530827, 141.3380115997,15.017000, 527517.9831,4769016.0178,0.00,351.510, 0.000,0.000,0.000,0.000,0.000,0.000,0.000,0.000,0.000
6.0,31320.7, 4, 43.0733530783, 141.3380115533,15.021000, 527517.9793,4769016.0173,0.00,311.640, 0.000,0.000,0.000,0.000,0.000,0.000,0.000,0.000,0.000
6.5,31321.2, 4, 43.0733530688, 141.3380114708,15.024000, 527517.9726,4769016.0162,0.00,318.360, 0.000,0.000,0.000,0.000,0.000,0.000,0.000,0.000,0.000
7.0,31321.7, 4, 43.0733530618, 141.3380114463,15.032000, 527517.9706,4769016.0155,0.00,313.530, 0.000,0.000,0.000,0.000,0.000,0.000,0.000,0.000,0.000
7.5,31322.2, 4, 43.0733530488, 141.3380114632,15.031000, 527517.9720,4769016.0140,0.00,139.730, 0.000,0.000,0.000,0.000,0.000,0.000,0.000,0.000,0.000
8.0,31322.7, 4, 43.0733530603, 141.3380114467,15.028000, 527517.9706,4769016.0153,0.00,12.940, 0.000,0.000,0.000,0.000,0.000,0.000,0.000,0.000,0.000
8.5,31323.2, 4, 43.0733530808, 141.3380115673,15.019000, 527517.9805,4769016.0176,0.00,239.700, 0.000,0.000,0.000,0.000,0.000,0.000,0.000,0.000,0.000
9.0,31323.7, 4, 43.0733530813, 141.3380115645,15.018000, 527517.9802,4769016.0177,0.00,295.640, 0.000,0.000,0.000,0.000,0.000,0.000,0.000,0.000,0.000
9.5,31324.2, 4, 43.0733531155, 141.3380115510,15.017000, 527517.9791,4769016.0215,0.00,243.420, 0.000,0.000,0.000,0.000,0.000,0.000,0.000,0.000,0.000
10.0,31324.7, 4, 43.0733531192, 141.3380115622,15.010000, 527517.9800,4769016.0219,0.00,243.430, 0.000,0.000,0.000,0.000,0.000,0.000,0.000,0.000,0.000
10.5,31325.2, 4, 43.0733531202, 141.3380115353,15.006000, 527517.9778,4769016.0220,0.00,219.880, 0.000,0.000,0.000,0.000,0.000,0.000,0.000,0.000,0.000
11.0,31325.7, 4, 43.0733531308, 141.3380115615,15.007000, 527517.9800,4769016.0232,0.00,31.240, 0.000,0.000,0.000,0.000,0.000,0.000,0.000,0.000,0.000
11.5,31326.2, 4, 43.0733531162, 141.3380115302,15.016000, 527517.9774,4769016.0215,0.00,143.320, 0.000,0.000,0.000,0.000,0.000,0.000,0.000,0.000,0.000
12.0,31326.7, 4, 43.0733531195, 141.3380115120,15.015000, 527517.9759,4769016.0219,0.00,241.250, 0.000,0.000,0.000,0.000,0.000,0.000,0.000,0.000,0.000
12.5,31327.2, 4, 43.0733546220, 141.3380101557,15.037000, 527517.8648,4769016.1883,0.00,336.490, 0.000,0.000,0.000,0.000,0.000,0.000,0.000,0.000,0.000
13.0,31327.7, 4, 43.0733561438, 141.3380088315,15.041000, 527517.7564,4769016.3569,0.00,331.170, 0.000,0.000,0.000,0.000,0.000,0.000,0.000,0.000,0.000
13.5,31328.2, 4, 43.0733579678, 141.3380074183,15.022000, 527517.6405,4769016.5589,0.00,333.790, 0.000,0.000,0.000,0.000,0.000,0.000,0.000,0.000,0.000
14.0,31328.7, 4, 43.0733597877, 141.3380058043,15.025000, 527517.5083,4769016.7605,0.00,331.580, 0.000,0.000,0.000,0.000,0.000,0.000,0.000,0.000,0.000
14.5,31329.2, 4, 43.0733626787, 141.3380032703,15.024000, 527517.3007,4769017.0807,0.01,334.100, 0.000,0.000,0.000,0.000,0.000,0.000,0.000,0.000,0.000
15.0,31329.7, 4, 43.0733655008, 141.3380009228,15.036000, 527517.1083,4769017.3934,0.01,336.730, 0.000,0.000,0.000,0.000,0.000,0.000,0.000,0.000,0.000
15.5,31330.2, 4, 43.0733685350, 141.3379984937,15.001000, 527516.9092,4769017.7295,0.01,335.570, 0.000,0.000,0.000,0.000,0.000,0.000,0.000,0.000,0.000
16.0,31330.7, 4, 43.0733709838, 141.3379963095,14.988000, 527516.7303,4769018.0007,0.00,333.820, 0.000,0.000,0.000,0.000,0.000,0.000,0.000,0.000,0.000
16.5,31331.2, 4, 43.0733734688, 141.3379939963,15.038000, 527516.5409,4769018.2759,0.00,335.270, 0.000,0.000,0.000,0.000,0.000,0.000,0.000,0.000,0.000
17.0,31331.7, 4, 43.0733779377, 141.3379904883,15.042000, 527516.2533,4769018.7710,0.01,340.020, 0.000,0.000,0.000,0.000,0.000,0.000,0.000,0.000,0.000
17.5,31332.2, 4, 43.0733833975, 141.3379866153,15.049000, 527515.9355,4769019.3761,0.01,337.570, 0.000,0.000,0.000,0.000,0.000,0.000,0.000,0.000,0.000
18.0,31332.7, 4, 43.0733889213, 141.3379825650,15.035000, 527515.6033,4769019.9882,0.01,337.950, 0.000,0.000,0.000,0.000,0.000,0.000,0.000,0.000,0.000
18.5,31333.2, 4, 43.0733941698, 141.3379783898,15.019000, 527515.2610,4769020.5697,0.01,336.440, 0.000,0.000,0.000,0.000,0.000,0.000,0.000,0.000,0.000
19.0,31333.7, 4, 43.0733990985, 141.3379740598,15.030000, 527514.9063,4769021.1156,0.01,337.000, 0.000,0.000,0.000,0.000,0.000,0.000,0.000,0.000,0.000
19.5,31334.2, 4, 43.0734044360, 141.3379702827,15.016000, 527514.5964,4769021.7071,0.01,339.610, 0.000,0.000,0.000,0.000,0.000,0.000,0.000,0.000,0.000
20.0,31334.7, 4, 43.0734113013, 141.3379649645,15.014000, 527514.1604,4769022.4677,0.01,337.000, 0.000,0.000,0.000,0.000,0.000,0.000,0.000,0.000,0.000
20.5,31335.2, 4, 43.0734179837, 141.3379601680,15.006000, 527513.7669,4769023.2082,0.01,334.870, 0.000,0.000,0.000,0.000,0.000,0.000,0.000,0.000,0.000
21.0,31335.7, 4, 43.0734249180, 141.3379551015,15.002000, 527513.3514,4769023.9766,0.01,334.100, 0.000,0.000,0.000,0.000,0.000,0.000,0.000,0.000,0.000
21.5,31336.2, 4, 43.0734313958, 141.3379496288,14.994000, 527512.9029,4769024.6942,0.01,330.050, 0.000,0.000,0.000,0.000,0.000,0.000,0.000,0.000,0.000
22.0,31336.7, 4, 43.0734397227, 141.3379433738,14.972000, 527512.3900,4769025.6168,0.02,331.260, 0.000,0.000,0.000,0.000,0.000,0.000,0.000,0.000,0.000
22.5,31337.2, 4, 43.0734477642, 141.3379379487,14.980000, 527511.9447,4769026.5080,0.02,330.520, 0.000,0.000,0.000,0.000,0.000,0.000,0.000,0.000,0.000
23.0,31337.7, 4, 43.0734564120, 141.3379321862,14.965000, 527511.4717,4769027.4665,0.02,332.450, 0.000,0.000,0.000,0.000,0.000,0.000,0.000,0.000,0.000
23.5,31338.2, 4, 43.0734651698, 141.3379256983,14.960000, 527510.9396,4769028.4369,0.02,333.970, 0.000,0.000,0.000,0.000,0.000,0.000,0.000,0.000,0.000
24.0,31338.7, 4, 43.0734746317, 141.3379188040,14.945000, 527510.3741,4769029.4854,0.02,333.380, 0.000,0.000,0.000,0.000,0.000,0.000,0.000,0.000,0.000
24.5,31339.2, 4, 43.0734857508, 141.3379112143,14.940000, 527509.7512,4769030.7177,0.02,332.580, 0.000,0.000,0.000,0.000,0.000,0.000,0.000,0.000,0.000
25.0,31339.7, 4, 43.0734965900, 141.3379023918,14.934000, 527509.0281,4769031.9185,0.02,332.210, 0.000,0.000,0.000,0.000,0.000,0.000,0.000,0.000,0.000
25.5,31340.2, 4, 43.0735073593, 141.3378937682,14.925000, 527508.3213,4769033.1116,0.02,330.220, 0.000,0.000,0.000,0.000,0.000,0.000,0.000,0.000,0.000
26.0,31340.7, 4, 43.0735180862, 141.3378857028,14.920000, 527507.6598,4769034.3002,0.02,333.930, 0.000,0.000,0.000,0.000,0.000,0.000,0.000,0.000,0.000
26.5,31341.2, 4, 43.0735302083, 141.3378759338,14.910000, 527506.8591,4769035.6431,0.02,334.540, 0.000,0.000,0.000,0.000,0.000,0.000,0.000,0.000,0.000
27.0,31341.7, 4, 43.0735432065, 141.3378647838,14.894000, 527505.9456,4769037.0829,0.03,327.860, 0.000,0.000,0.000,0.000,0.000,0.000,0.000,0.000,0.000
27.5,31342.2, 4, 43.0735566062, 141.3378537397,14.890000, 527505.0405,4769038.5673,0.03,331.450, 0.000,0.000,0.000,0.000,0.000,0.000,0.000,0.000,0.000
28.0,31342.7, 4, 43.0735704610, 141.3378416960,14.879000, 527504.0538,4769040.1019,0.03,333.090, 0.000,0.000,0.000,0.000,0.000,0.000,0.000,0.000,0.000
28.5,31343.2, 4, 43.0735837767, 141.3378305125,14.875000, 527503.1374,4769041.5770,0.03,335.070, 0.000,0.000,0.000,0.000,0.000,0.000,0.000,0.000,0.000
29.0,31343.7, 4, 43.0735971820, 141.3378191658,14.893000, 527502.2076,4769043.0619,0.03,332.100, 0.000,0.000,0.000,0.000,0.000,0.000,0.000,0.000,0.000
29.5,31344.2, 4, 43.0736106027, 141.3378076315,14.864000, 527501.2626,4769044.5485,0.03,334.770, 0.000,0.000,0.000,0.000,0.000,0.000,0.000,0.000,0.000
30.0,31344.7, 4, 43.0736239650, 141.3377965883,14.880000, 527500.3576,4769046.0288,0.03,333.120, 0.000,0.000,0.000,0.000,0.000,0.000,0.000,0.000,0.000
30.5,31345.2, 4, 43.0736373522, 141.3377848913,14.889000, 527499.3993,4769047.5116,0.03,330.600, 0.000,0.000,0.000,0.000,0.000,0.000,0.000,0.000,0.000
31.0,31345.7, 4, 43.0736502982, 141.3377734475,14.875000, 527498.4619,4769048.9455,0.03,332.840, 0.000,0.000,0.000,0.000,0.000,0.000,0.000,0.000,0.000
31.5,31346.2, 4, 43.0736634030, 141.3377623083,14.869000, 527497.5492,4769050.3971,0.02,335.700, 0.000,0.000,0.000,0.000,0.000,0.000,0.000,0.000,0.000
32.0,31346.7, 4, 43.0736761812, 141.3377509937,14.880000, 527496.6223,4769051.8124,0.02,332.170, 0.000,0.000,0.000,0.000,0.000,0.000,0.000,0.000,0.000
32.5,31347.2, 4, 43.0736894695, 141.3377396885,14.861000, 527495.6960,4769053.2844,0.03,334.430, 0.000,0.000,0.000,0.000,0.000,0.000,0.000,0.000,0.000
33.0,31347.7, 4, 43.0737026195, 141.3377284445,14.849000, 527494.7748,4769054.7410,0.02,335.030, 0.000,0.000,0.000,0.000,0.000,0.000,0.000,0.000,0.000
33.5,31348.2, 4, 43.0737156762, 141.3377168532,14.846000, 527493.8253,4769056.1871,0.03,331.570, 0.000,0.000,0.000,0.000,0.000,0.000,0.000,0.000,0.000
34.0,31348.7, 4, 43.0737286868, 141.3377054538,14.836000, 527492.8914,4769057.6282,0.03,333.800, 0.000,0.000,0.000,0.000,0.000,0.000,0.000,0.000,0.000
34.5,31349.2, 4, 43.0737418042, 141.3376940018,14.814000, 527491.9532,4769059.0812,0.03,335.030, 0.000,0.000,0.000,0.000,0.000,0.000,0.000,0.000,0.000
35.0,31349.7, 4, 43.0737549690, 141.3376823320,14.802000, 527490.9973,4769060.5393,0.03,333.930, 0.000,0.000,0.000,0.000,0.000,0.000,0.000,0.000,0.000
35.5,31350.2, 4, 43.0737679322, 141.3376710242,14.804000, 527490.0709,4769061.9751,0.02,331.970, 0.000,0.000,0.000,0.000,0.000,0.000,0.000,0.000,0.000
36.0,31350.7, 4, 43.0737809297, 141.3376595805,14.806000, 527489.1335,4769063.4148,0.03,329.880, 0.000,0.000,0.000,0.000,0.000,0.000,0.000,0.000,0.000
36.5,31351.2, 4, 43.0737939588, 141.3376484653,14.801000, 527488.2228,4769064.8580,0.03,331.510, 0.000,0.000,0.000,0.000,0.000,0.000,0.000,0.000,0.000
37.0,31351.7, 4, 43.0738071408, 141.3376375782,14.812000, 527487.3305,4769066.3183,0.03,332.220, 0.000,0.000,0.000,0.000,0.000,0.000,0.000,0.000,0.000
37.5,31352.2, 4, 43.0738203887, 141.3376267325,14.796000, 527486.4417,4769067.7859,0.03,329.330, 0.000,0.000,0.000,0.000,0.000,0.000,0.000,0.000,0.000
38.0,31352.7, 4, 43.0738335368, 141.3376156218,14.797000, 527485.5313,4769069.2424,0.03,324.760, 0.000,0.000,0.000,0.000,0.000,0.000,0.000,0.000,0.000
38.5,31353.2, 4, 43.0738464915, 141.3376042858,14.782000, 527484.6026,4769070.6773,0.03,331.350, 0.000,0.000,0.000,0.000,0.000,0.000,0.000,0.000,0.000
39.0,31353.7, 4, 43.0738594102, 141.3375924180,14.781000, 527483.6306,4769072.1080,12.32,326.700, 0.000,0.000,0.000,0.000,0.000,0.000,0.000,0.000,0.000
39.5,31354.2, 4, 43.0738721617, 141.3375800950,14.757000, 527482.6217,4769073.5200,2.03,323.170, 0.000,0.000,0.000,0.000,0.000,0.000,0.000,0.000,0.000
40.0,31354.7, 4, 43.0738850723, 141.3375687783,14.764000, 527481.6947,4769074.9501,1.13,327.180, 0.000,0.000,0.000,0.000,0.000,0.000,0.000,0.000,0.000
40.5,31355.2, 4, 43.0738980785, 141.3375571293,14.759000, 527480.7405,4769076.3906,0.76,328.600, 0.000,0.000,0.000,0.000,0.000,0.000,0.000,0.000,0.000
41.0,31355.7, 4, 43.0739111767, 141.3375455740,14.747000, 527479.7939,4769077.8413,0.56,329.440, 0.000,0.000,0.000,0.000,0.000,0.000,0.000,0.000,0.000
41.5,31356.2, 4, 43.0739242958, 141.3375343553,14.702000, 527478.8747,4769079.2945,0.47,329.180, 0.000,0.000,0.000,0.000,0.000,0.000,0.000,0.000,0.000
42.0,31356.7, 4, 43.0739376133, 141.3375232568,14.691000, 527477.9652,4769080.7698,0.39,331.500, 0.000,0.000,0.000,0.000,0.000,0.000,0.000,0.000,0.000
42.5,31357.2, 4, 43.0739506568, 141.3375120328,14.685000, 527477.0457,4769082.2146,0.34,327.500, 0.000,0.000,0.000,0.000,0.000,0.000,0.000,0.000,0.000
43.0,31357.7, 4, 43.0739637427, 141.3375010770,14.683000, 527476.1479,4769083.6642,0.28,329.340, 0.000,0.000,0.000,0.000,0.000,0.000,0.000,0.000,0.000
43.5,31358.2, 4, 43.0739767760, 141.3374902702,14.692000, 527475.2623,4769085.1080,0.24,327.630, 0.000,0.000,0.000,0.000,0.000,0.000,0.000,0.000,0.000
44.0,31358.7, 4, 43.0739896243, 141.3374790960,14.703000, 527474.3469,4769086.5312,0.22,330.820, 0.000,0.000,0.000,0.000,0.000,0.000,0.000,0.000,0.000
44.5,31359.2, 4, 43.0740029430, 141.3374681433,14.703000, 527473.4492,4769088.0066,0.22,329.010, 0.000,0.000,0.000,0.000,0.000,0.000,0.000,0.000,0.000
45.0,31359.7, 4, 43.0740160722, 141.3374572738,14.698000, 527472.5585,4769089.4610,0.19,330.610, 0.000,0.000,0.000,0.000,0.000,0.000,0.000,0.000,0.000
45.5,31400.2, 4, 43.0740295670, 141.3374461592,14.676000, 527471.6476,4769090.9560,0.19,333.320, 0.000,0.000,0.000,0.000,0.000,0.000,0.000,0.000,0.000
46.0,31400.7, 4, 43.0740426552, 141.3374350760,14.666000, 527470.7395,4769092.4058,0.17,330.520, 0.000,0.000,0.000,0.000,0.000,0.000,0.000,0.000,0.000
46.5,31401.2, 4, 43.0740558675, 141.3374241612,14.661000, 527469.8450,4769093.8695,0.16,329.910, 0.000,0.000,0.000,0.000,0.000,0.000,0.000,0.000,0.000
47.0,31401.7, 4, 43.0740685550, 141.3374136352,14.675000, 527468.9824,4769095.2750,0.14,332.670, 0.000,0.000,0.000,0.000,0.000,0.000,0.000,0.000,0.000
47.5,31402.2, 4, 43.0740810302, 141.3374030885,14.697000, 527468.1182,4769096.6569,0.14,327.440, 0.000,0.000,0.000,0.000,0.000,0.000,0.000,0.000,0.000
48.0,31402.7, 4, 43.0740931685, 141.3373931298,14.708000, 527467.3021,4769098.0016,0.13,325.690, 0.000,0.000,0.000,0.000,0.000,0.000,0.000,0.000,0.000
48.5,31403.2, 4, 43.0741059865, 141.3373828520,14.705000, 527466.4596,4769099.4217,0.12,332.690, 0.000,0.000,0.000,0.000,0.000,0.000,0.000,0.000,0.000
49.0,31403.7, 4, 43.0741174233, 141.3373732082,14.709000, 527465.6694,4769100.6886,0.10,332.210, 0.000,0.000,0.000,0.000,0.000,0.000,0.000,0.000,0.000
49.5,31404.2, 4, 43.0741271940, 141.3373653030,14.716000, 527465.0215,4769101.7710,0.08,332.030, 0.000,0.000,0.000,0.000,0.000,0.000,0.000,0.000,0.000
50.0,31404.7, 4, 43.0741367673, 141.3373574308,14.717000, 527464.3763,4769102.8315,0.08,328.960, 0.000,0.000,0.000,0.000,0.000,0.000,0.000,0.000,0.000
50.5,31405.2, 4, 43.0741461753, 141.3373496272,14.714000, 527463.7368,4769103.8737,0.08,322.890, 0.000,0.000,0.000,0.000,0.000,0.000,0.000,0.000,0.000
51.0,31405.7, 4, 43.0741551540, 141.3373420312,14.715000, 527463.1144,4769104.8683,0.07,324.760, 0.000,0.000,0.000,0.000,0.000,0.000,0.000,0.000,0.000
51.5,31406.2, 4, 43.0741642830, 141.3373342618,14.710000, 527462.4778,4769105.8796,0.06,333.780, 0.000,0.000,0.000,0.000,0.000,0.000,0.000,0.000,0.000
52.0,31406.7, 4, 43.0741722612, 141.3373274960,14.704000, 527461.9235,4769106.7633,0.05,328.920, 0.000,0.000,0.000,0.000,0.000,0.000,0.000,0.000,0.000
52.5,31407.2, 4, 43.0741784832, 141.3373222513,14.684000, 527461.4937,4769107.4526,0.05,333.050, 0.000,0.000,0.000,0.000,0.000,0.000,0.000,0.000,0.000
53.0,31407.7, 4, 43.0741849197, 141.3373162310,14.687000, 527461.0007,4769108.1654,0.04,331.760, 0.000,0.000,0.000,0.000,0.000,0.000,0.000,0.000,0.000
53.5,31408.2, 4, 43.0741914393, 141.3373105745,14.675000, 527460.5373,4769108.8875,0.04,333.160, 0.000,0.000,0.000,0.000,0.000,0.000,0.000,0.000,0.000
54.0,31408.7, 4, 43.0741979907, 141.3373049767,14.654000, 527460.0787,4769109.6132,0.04,329.090, 0.000,0.000,0.000,0.000,0.000,0.000,0.000,0.000,0.000
54.5,31409.2, 4, 43.0742043455, 141.3372995907,14.664000, 527459.6373,4769110.3172,0.04,329.320, 0.000,0.000,0.000,0.000,0.000,0.000,0.000,0.000,0.000
55.0,31409.7, 4, 43.0742108862, 141.3372940420,14.675000, 527459.1827,4769111.0417,0.04,328.590, 0.000,0.000,0.000,0.000,0.000,0.000,0.000,0.000,0.000
55.5,31410.2, 4, 43.0742174990, 141.3372886975,14.652000, 527458.7447,4769111.7743,0.04,328.770, 0.000,0.000,0.000,0.000,0.000,0.000,0.000,0.000,0.000
56.0,31410.7, 4, 43.0742234627, 141.3372831188,14.697000, 527458.2878,4769112.4347,0.04,327.930, 0.000,0.000,0.000,0.000,0.000,0.000,0.000,0.000,0.000
56.5,31411.2, 4, 43.0742296092, 141.3372775125,14.699000, 527457.8287,4769113.1155,0.03,324.960, 0.000,0.000,0.000,0.000,0.000,0.000,0.000,0.000,0.000
57.0,31411.7, 4, 43.0742359390, 141.3372720697,14.688000, 527457.3828,4769113.8166,0.03,328.910, 0.000,0.000,0.000,0.000,0.000,0.000,0.000,0.000,0.000
57.5,31412.2, 4, 43.0742412818, 141.3372678083,14.673000, 527457.0335,4769114.4085,0.03,331.830, 0.000,0.000,0.000,0.000,0.000,0.000,0.000,0.000,0.000
58.0,31412.7, 4, 43.0742463287, 141.3372634755,14.678000, 527456.6785,4769114.9676,0.03,328.430, 0.000,0.000,0.000,0.000,0.000,0.000,0.000,0.000,0.000
58.5,31413.2, 4, 43.0742512837, 141.3372590022,14.659000, 527456.3121,4769115.5163,0.03,326.940, 0.000,0.000,0.000,0.000,0.000,0.000,0.000,0.000,0.000
59.0,31413.7, 4, 43.0742561813, 141.3372547720,14.665000, 527455.9655,4769116.0588,0.02,327.480, 0.000,0.000,0.000,0.000,0.000,0.000,0.000,0.000,0.000
59.5,31414.2, 4, 43.0742608752, 141.3372506207,14.665000, 527455.6255,4769116.5787,0.02,325.780, 0.000,0.000,0.000,0.000,0.000,0.000,0.000,0.000,0.000
60.0,31414.7, 4, 43.0742655610, 141.3372463028,14.659000, 527455.2718,4769117.0977,0.02,327.530, 0.000,0.000,0.000,0.000,0.000,0.000,0.000,0.000,0.000
60.5,31415.2, 4, 43.0742701830, 141.3372419075,14.658000, 527454.9120,4769117.6095,0.02,326.760, 0.000,0.000,0.000,0.000,0.000,0.000,0.000,0.000,0.000
61.0,31415.7, 4, 43.0742752655, 141.3372377982,14.647000, 527454.5751,4769118.1726,0.02,328.700, 0.000,0.000,0.000,0.000,0.000,0.000,0.000,0.000,0.000
61.5,31416.2, 4, 43.0742804623, 141.3372336642,14.642000, 527454.2363,4769118.7483,0.02,334.690, 0.000,0.000,0.000,0.000,0.000,0.000,0.000,0.000,0.000
62.0,31416.7, 4, 43.0742857638, 141.3372300673,14.645000, 527453.9411,4769119.3359,0.02,333.120, 0.000,0.000,0.000,0.000,0.000,0.000,0.000,0.000,0.000
62.5,31417.2, 4, 43.0742909558, 141.3372266502,14.646000, 527453.6606,4769119.9113,0.02,334.670, 0.000,0.000,0.000,0.000,0.000,0.000,0.000,0.000,0.000
63.0,31417.7, 4, 43.0742962463, 141.3372231890,14.639000, 527453.3764,4769120.4977,0.02,336.740, 0.000,0.000,0.000,0.000,0.000,0.000,0.000,0.000,0.000
63.5,31418.2, 4, 43.0743016627, 141.3372199267,14.635000, 527453.1084,4769121.0981,0.02,337.370, 0.000,0.000,0.000,0.000,0.000,0.000,0.000,0.000,0.000
64.0,31418.7, 4, 43.0743067498, 141.3372160930,14.627000, 527452.7941,4769121.6618,0.02,333.100, 0.000,0.000,0.000,0.000,0.000,0.000,0.000,0.000,0.000
64.5,31419.2, 4, 43.0743116380, 141.3372122362,14.622000, 527452.4779,4769122.2034,0.02,332.180, 0.000,0.000,0.000,0.000,0.000,0.000,0.000,0.000,0.000
65.0,31419.7, 4, 43.0743163423, 141.3372077800,14.633000, 527452.1130,4769122.7243,0.02,323.420, 0.000,0.000,0.000,0.000,0.000,0.000,0.000,0.000,0.000
65.5,31420.2, 4, 43.0743204348, 141.3372022978,14.628000, 527451.6649,4769123.1770,0.02,311.590, 0.000,0.000,0.000,0.000,0.000,0.000,0.000,0.000,0.000
66.0,31420.7, 4, 43.0743239690, 141.3371962775,14.617000, 527451.1732,4769123.5675,0.02,300.610, 0.000,0.000,0.000,0.000,0.000,0.000,0.000,0.000,0.000
66.5,31421.2, 4, 43.0743270083, 141.3371895800,14.609000, 527450.6266,4769123.9028,0.02,294.890, 0.000,0.000,0.000,0.000,0.000,0.000,0.000,0.000,0.000
67.0,31421.7, 4, 43.0743293727, 141.3371825872,14.616000, 527450.0563,4769124.1631,0.01,293.980, 0.000,0.000,0.000,0.000,0.000,0.000,0.000,0.000,0.000
67.5,31422.2, 4, 43.0743310762, 141.3371751730,14.611000, 527449.4519,4769124.3499,0.01,294.170, 0.000,0.000,0.000,0.000,0.000,0.000,0.000,0.000,0.000
68.0,31422.7, 4, 43.0743322007, 141.3371677320,14.607000, 527448.8456,4769124.4723,0.01,303.570, 0.000,0.000,0.000,0.000,0.000,0.000,0.000,0.000,0.000
68.5,31423.2, 4, 43.0743326915, 141.3371598190,14.606000, 527448.2012,4769124.5242,0.01,296.260, 0.000,0.000,0.000,0.000,0.000,0.000,0.000,0.000,0.000
69.0,31423.7, 4, 43.0743330113, 141.3371517670,14.599000, 527447.5456,4769124.5571,0.01,288.760, 0.000,0.000,0.000,0.000,0.000,0.000,0.000,0.000,0.000
69.5,31424.2, 4, 43.0743326983, 141.3371437288,14.583000, 527446.8913,4769124.5197,0.01,283.870, 0.000,0.000,0.000,0.000,0.000,0.000,0.000,0.000,0.000
70.0,31424.7, 4, 43.0743312850, 141.3371359323,14.572000, 527446.2572,4769124.3602,0.01,274.440, 0.000,0.000,0.000,0.000,0.000,0.000,0.000,0.000,0.000
70.5,31425.2, 4, 43.0743294472, 141.3371282637,14.559000, 527445.6337,4769124.1536,1.58,258.910, 0.000,0.000,0.000,0.000,0.000,0.000,0.000,0.000,0.000
71.0,31425.7, 4, 43.0743273837, 141.3371207378,14.542000, 527445.0220,4769123.9220,0.49,254.100, 0.000,0.000,0.000,0.000,0.000,0.000,0.000,0.000,0.000
71.5,31426.2, 4, 43.0743251162, 141.3371133697,14.523000, 527444.4232,4769123.6678,0.43,245.140, 0.000,0.000,0.000,0.000,0.000,0.000,0.000,0.000,0.000
72.0,31426.7, 4, 43.0743222262, 141.3371060367,14.508000, 527443.8275,4769123.3445,0.36,243.580, 0.000,0.000,0.000,0.000,0.000,0.000,0.000,0.000,0.000
72.5,31427.2, 4, 43.0743191582, 141.3370994483,14.493000, 527443.2925,4769123.0016,0.20,240.080, 0.000,0.000,0.000,0.000,0.000,0.000,0.000,0.000,0.000
73.0,31427.7, 4, 43.0743160802, 141.3370927787,14.477000, 527442.7509,4769122.6576,0.19,239.410, 0.000,0.000,0.000,0.000,0.000,0.000,0.000,0.000,0.000
73.5,31428.2, 4, 43.0743130597, 141.3370861402,14.477000, 527442.2118,4769122.3200,0.11,238.330, 0.000,0.000,0.000,0.000,0.000,0.000,0.000,0.000,0.000
74.0,31428.7, 4, 43.0743093392, 141.3370787532,14.479000, 527441.6121,4769121.9044,0.09,236.430, 0.000,0.000,0.000,0.000,0.000,0.000,0.000,0.000,0.000
74.5,31429.2, 4, 43.0743056890, 141.3370712945,14.474000, 527441.0065,4769121.4966,0.09,238.170, 0.000,0.000,0.000,0.000,0.000,0.000,0.000,0.000,0.000
75.0,31429.7, 4, 43.0743019362, 141.3370637280,14.475000, 527440.3922,4769121.0774,0.11,237.840, 0.000,0.000,0.000,0.000,0.000,0.000,0.000,0.000,0.000
75.5,31430.2, 4, 43.0742981385, 141.3370563258,14.472000, 527439.7912,4769120.6533,0.11,236.620, 0.000,0.000,0.000,0.000,0.000,0.000,0.000,0.000,0.000
76.0,31430.7, 4, 43.0742935760, 141.3370474163,14.467000, 527439.0680,4769120.1437,0.12,236.780, 0.000,0.000,0.000,0.000,0.000,0.000,0.000,0.000,0.000
76.5,31431.2, 4, 43.0742888957, 141.3370378417,14.463000, 527438.2906,4769119.6208,0.12,238.180, 0.000,0.000,0.000,0.000,0.000,0.000,0.000,0.000,0.000
77.0,31431.7, 4, 43.0742842865, 141.3370285230,14.464000, 527437.5340,4769119.1059,0.09,236.930, 0.000,0.000,0.000,0.000,0.000,0.000,0.000,0.000,0.000
77.5,31432.2, 4, 43.0742793362, 141.3370184267,14.451000, 527436.7143,4769118.5529,0.08,236.690, 0.000,0.000,0.000,0.000,0.000,0.000,0.000,0.000,0.000
78.0,31432.7, 4, 43.0742739063, 141.3370074322,14.437000, 527435.8216,4769117.9463,0.09,238.440, 0.000,0.000,0.000,0.000,0.000,0.000,0.000,0.000,0.000
78.5,31433.2, 4, 43.0742676528, 141.3369945470,14.429000, 527434.7754,4769117.2476,0.08,237.080, 0.000,0.000,0.000,0.000,0.000,0.000,0.000,0.000,0.000
79.0,31433.7, 4, 43.0742613453, 141.3369821702,14.420000, 527433.7706,4769116.5431,0.10,235.720, 0.000,0.000,0.000,0.000,0.000,0.000,0.000,0.000,0.000
79.5,31434.2, 4, 43.0742554587, 141.3369694212,14.413000, 527432.7354,4769115.8852,0.08,238.360, 0.000,0.000,0.000,0.000,0.000,0.000,0.000,0.000,0.000
80.0,31434.7, 4, 43.0742495918, 141.3369563153,14.412000, 527431.6710,4769115.2295,0.07,237.680, 0.000,0.000,0.000,0.000,0.000,0.000,0.000,0.000,0.000
80.5,31435.2, 4, 43.0742433897, 141.3369434567,14.404000, 527430.6270,4769114.5365,0.07,236.510, 0.000,0.000,0.000,0.000,0.000,0.000,0.000,0.000,0.000
81.0,31435.7, 4, 43.0742373318, 141.3369310323,14.405000, 527429.6182,4769113.8597,0.07,236.450, 0.000,0.000,0.000,0.000,0.000,0.000,0.000,0.000,0.000
81.5,31436.2, 4, 43.0742315785, 141.3369180313,14.406000, 527428.5623,4769113.2166,0.06,237.480, 0.000,0.000,0.000,0.000,0.000,0.000,0.000,0.000,0.000
82.0,31436.7, 4, 43.0742257232, 141.3369053038,14.415000, 527427.5288,4769112.5622,0.05,236.830, 0.000,0.000,0.000,0.000,0.000,0.000,0.000,0.000,0.000
82.5,31437.2, 4, 43.0742198020, 141.3368924223,14.434000, 527426.4828,4769111.9004,0.07,238.460, 0.000,0.000,0.000,0.000,0.000,0.000,0.000,0.000,0.000
83.0,31437.7, 4, 43.0742137923, 141.3368791112,14.424000, 527425.4018,4769111.2287,0.06,237.260, 0.000,0.000,0.000,0.000,0.000,0.000,0.000,0.000,0.000
83.5,31438.2, 4, 43.0742079073, 141.3368663458,14.425000, 527424.3652,4769110.5710,0.05,236.170, 0.000,0.000,0.000,0.000,0.000,0.000,0.000,0.000,0.000
84.0,31438.7, 4, 43.0742019545, 141.3368541138,14.429000, 527423.3720,4769109.9059,0.05,236.800, 0.000,0.000,0.000,0.000,0.000,0.000,0.000,0.000,0.000
84.5,31439.2, 4, 43.0741962782, 141.3368415982,14.448000, 527422.3556,4769109.2715,0.04,237.360, 0.000,0.000,0.000,0.000,0.000,0.000,0.000,0.000,0.000
85.0,31439.7, 4, 43.0741904017, 141.3368290970,14.466000, 527421.3405,4769108.6148,0.04,237.770, 0.000,0.000,0.000,0.000,0.000,0.000,0.000,0.000,0.000
85.5,31440.2, 4, 43.0741849195, 141.3368163912,14.475000, 527420.3086,4769108.0019,0.04,238.690, 0.000,0.000,0.000,0.000,0.000,0.000,0.000,0.000,0.000
86.0,31440.7, 4, 43.0741789608, 141.3368038570,14.483000, 527419.2908,4769107.3360,0.06,237.350, 0.000,0.000,0.000,0.000,0.000,0.000,0.000,0.000,0.000
86.5,31441.2, 4, 43.0741730357, 141.3367912638,14.481000, 527418.2683,4769106.6739,0.06,239.100, 0.000,0.000,0.000,0.000,0.000,0.000,0.000,0.000,0.000
87.0,31441.7, 4, 43.0741672105, 141.3367788448,14.488000, 527417.2598,4769106.0230,0.05,237.920, 0.000,0.000,0.000,0.000,0.000,0.000,0.000,0.000,0.000
87.5,31442.2, 4, 43.0741616338, 141.3367661520,14.479000, 527416.2290,4769105.3996,0.03,239.910, 0.000,0.000,0.000,0.000,0.000,0.000,0.000,0.000,0.000
88.0,31442.7, 4, 43.0741566558, 141.3367559742,14.486000, 527415.4026,4769104.8434,0.02,234.360, 0.000,0.000,0.000,0.000,0.000,0.000,0.000,0.000,0.000
88.5,31443.2, 4, 43.0741525237, 141.3367462505,14.483000, 527414.6129,4769104.3814,0.03,239.640, 0.000,0.000,0.000,0.000,0.000,0.000,0.000,0.000,0.000
89.0,31443.7, 4, 43.0741479915, 141.3367362710,14.484000, 527413.8024,4769103.8748,0.03,236.030, 0.000,0.000,0.000,0.000,0.000,0.000,0.000,0.000,0.000
89.5,31444.2, 4, 43.0741430692, 141.3367265225,14.473000, 527413.0110,4769103.3250,0.03,235.890, 0.000,0.000,0.000,0.000,0.000,0.000,0.000,0.000,0.000
90.0,31444.7, 4, 43.0741385238, 141.3367172280,14.468000, 527412.2564,4769102.8172,0.03,236.850, 0.000,0.000,0.000,0.000,0.000,0.000,0.000,0.000,0.000
90.5,31445.2, 4, 43.0741349365, 141.3367100832,14.463000, 527411.6763,4769102.4165,0.02,236.780, 0.000,0.000,0.000,0.000,0.000,0.000,0.000,0.000,0.000
91.0,31445.7, 4, 43.0741313763, 141.3367023300,14.455000, 527411.0467,4769102.0186,0.02,234.940, 0.000,0.000,0.000,0.000,0.000,0.000,0.000,0.000,0.000
91.5,31446.2, 4, 43.0741277545, 141.3366950950,14.452000, 527410.4593,4769101.6140,0.03,236.550, 0.000,0.000,0.000,0.000,0.000,0.000,0.000,0.000,0.000
92.0,31446.7, 4, 43.0741240557, 141.3366878558,14.458000, 527409.8716,4769101.2009,0.02,234.170, 0.000,0.000,0.000,0.000,0.000,0.000,0.000,0.000,0.000
92.5,31447.2, 4, 43.0741204842, 141.3366802605,14.450000, 527409.2549,4769100.8018,0.02,236.100, 0.000,0.000,0.000,0.000,0.000,0.000,0.000,0.000,0.000
93.0,31447.7, 4, 43.0741168178, 141.3366724498,14.443000, 527408.6206,4769100.3921,0.02,237.130, 0.000,0.000,0.000,0.000,0.000,0.000,0.000,0.000,0.000
93.5,31448.2, 4, 43.0741130307, 141.3366650635,14.445000, 527408.0210,4769099.9692,0.02,235.870, 0.000,0.000,0.000,0.000,0.000,0.000,0.000,0.000,0.000
94.0,31448.7, 4, 43.0741097255, 141.3366575422,14.435000, 527407.4102,4769099.5997,0.02,240.450, 0.000,0.000,0.000,0.000,0.000,0.000,0.000,0.000,0.000
94.5,31449.2, 4, 43.0741067312, 141.3366499617,14.437000, 527406.7944,4769099.2647,0.02,239.450, 0.000,0.000,0.000,0.000,0.000,0.000,0.000,0.000,0.000
95.0,31449.7, 4, 43.0741032848, 141.3366426728,14.436000, 527406.2025,4769098.8796,0.02,237.370, 0.000,0.000,0.000,0.000,0.000,0.000,0.000,0.000,0.000
95.5,31450.2, 4, 43.0740997300, 141.3366352978,14.441000, 527405.6037,4769098.4824,0.02,237.690, 0.000,0.000,0.000,0.000,0.000,0.000,0.000,0.000,0.000
96.0,31450.7, 4, 43.0740962430, 141.3366276608,14.454000, 527404.9835,4769098.0927,0.02,239.300, 0.000,0.000,0.000,0.000,0.000,0.000,0.000,0.000,0.000
96.5,31451.2, 4, 43.0740927825, 141.3366199523,14.457000, 527404.3575,4769097.7059,0.02,238.660, 0.000,0.000,0.000,0.000,0.000,0.000,0.000,0.000,0.000
97.0,31451.7, 4, 43.0740893625, 141.3366124410,14.463000, 527403.7475,4769097.3236,0.02,239.110, 0.000,0.000,0.000,0.000,0.000,0.000,0.000,0.000,0.000
97.5,31452.2, 4, 43.0740857782, 141.3366051752,14.469000, 527403.1576,4769096.9232,0.02,238.150, 0.000,0.000,0.000,0.000,0.000,0.000,0.000,0.000,0.000
98.0,31452.7, 4, 43.0740824368, 141.3365977145,14.474000, 527402.5517,4769096.5497,0.02,238.760, 0.000,0.000,0.000,0.000,0.000,0.000,0.000,0.000,0.000
98.5,31453.2, 4, 43.0740790685, 141.3365905507,14.469000, 527401.9700,4769096.1733,0.02,236.420, 0.000,0.000,0.000,0.000,0.000,0.000,0.000,0.000,0.000
99.0,31453.7, 4, 43.0740759143, 141.3365836213,14.464000, 527401.4073,4769095.8208,0.02,238.060, 0.000,0.000,0.000,0.000,0.000,0.000,0.000,0.000,0.000
99.5,31454.2, 4, 43.0740728073, 141.3365769017,14.469000, 527400.8616,4769095.4736,0.02,236.910, 0.000,0.000,0.000,0.000,0.000,0.000,0.000,0.000,0.000
100.0,31454.7, 4, 43.0740696798, 141.3365700513,14.471000, 527400.3053,4769095.1240,0.02,237.360, 0.000,0.000,0.000,0.000,0.000,0.000,0.000,0.000,0.000
100.5,31455.2, 4, 43.0740664703, 141.3365631368,14.466000, 527399.7438,4769094.7653,0.02,237.920, 0.000,0.000,0.000,0.000,0.000,0.000,0.000,0.000,0.000
101.0,31455.7, 4, 43.0740632390, 141.3365564345,14.472000, 527399.1996,4769094.4043,0.02,236.540, 0.000,0.000,0.000,0.000,0.000,0.000,0.000,0.000,0.000
101.5,31456.2, 4, 43.0740600192, 141.3365496583,14.467000, 527398.6494,4769094.0445,0.02,237.550, 0.000,0.000,0.000,0.000,0.000,0.000,0.000,0.000,0.000
102.0,31456.7, 4, 43.0740567497, 141.3365428307,14.462000, 527398.0950,4769093.6792,0.01,237.330, 0.000,0.000,0.000,0.000,0.000,0.000,0.000,0.000,0.000
102.5,31457.2, 4, 43.0740536762, 141.3365360623,14.452000, 527397.5454,4769093.3357,0.02,237.910, 0.000,0.000,0.000,0.000,0.000,0.000,0.000,0.000,0.000
103.0,31457.7, 4, 43.0740507715, 141.3365294515,14.446000, 527397.0085,4769093.0110,0.02,238.180, 0.000,0.000,0.000,0.000,0.000,0.000,0.000,0.000,0.000
103.5,31458.2, 4, 43.0740477538, 141.3365228942,14.434000, 527396.4760,4769092.6737,0.02,236.690, 0.000,0.000,0.000,0.000,0.000,0.000,0.000,0.000,0.000
104.0,31458.7, 4, 43.0740449725, 141.3365164537,14.429000, 527395.9529,4769092.3628,0.02,237.980, 0.000,0.000,0.000,0.000,0.000,0.000,0.000,0.000,0.000
104.5,31459.2, 4, 43.0740421752, 141.3365099373,14.422000, 527395.4237,4769092.0500,0.02,237.960, 0.000,0.000,0.000,0.000,0.000,0.000,0.000,0.000,0.000
105.0,31459.7, 4, 43.0740393827, 141.3365037535,14.418000, 527394.9215,4769091.7379,0.01,237.940, 0.000,0.000,0.000,0.000,0.000,0.000,0.000,0.000,0.000
105.5,31500.2, 4, 43.0740373063, 141.3364991425,14.422000, 527394.5470,4769091.5058,0.01,237.100, 0.000,0.000,0.000,0.000,0.000,0.000,0.000,0.000,0.000
106.0,31500.7, 4, 43.0740347428, 141.3364935825,14.416000, 527394.0955,4769091.2193,0.01,237.580, 0.000,0.000,0.000,0.000,0.000,0.000,0.000,0.000,0.000
106.5,31501.2, 4, 43.0740323365, 141.3364883197,14.411000, 527393.6682,4769090.9504,0.01,237.470, 0.000,0.000,0.000,0.000,0.000,0.000,0.000,0.000,0.000
107.0,31501.7, 4, 43.0740300178, 141.3364834630,14.418000, 527393.2738,4769090.6913,0.01,238.200, 0.000,0.000,0.000,0.000,0.000,0.000,0.000,0.000,0.000
107.5,31502.2, 4, 43.0740276182, 141.3364784390,14.415000, 527392.8659,4769090.4232,0.01,236.090, 0.000,0.000,0.000,0.000,0.000,0.000,0.000,0.000,0.000
108.0,31502.7, 4, 43.0740252833, 141.3364734552,14.414000, 527392.4612,4769090.1622,0.01,238.400, 0.000,0.000,0.000,0.000,0.000,0.000,0.000,0.000,0.000
108.5,31503.2, 4, 43.0740230043, 141.3364685603,14.416000, 527392.0637,4769089.9076,0.01,237.620, 0.000,0.000,0.000,0.000,0.000,0.000,0.000,0.000,0.000
109.0,31503.7, 4, 43.0740207293, 141.3364636858,14.415000, 527391.6679,4769089.6533,0.01,237.630, 0.000,0.000,0.000,0.000,0.000,0.000,0.000,0.000,0.000
109.5,31504.2, 4, 43.0740184202, 141.3364585372,14.409000, 527391.2497,4769089.3952,0.01,238.400, 0.000,0.000,0.000,0.000,0.000,0.000,0.000,0.000,0.000
110.0,31504.7, 4, 43.0740161007, 141.3364535467,14.407000, 527390.8445,4769089.1360,0.01,238.430, 0.000,0.000,0.000,0.000,0.000,0.000,0.000,0.000,0.000
110.5,31505.2, 4, 43.0740138892, 141.3364487058,14.408000, 527390.4514,4769088.8888,0.01,237.800, 0.000,0.000,0.000,0.000,0.000,0.000,0.000,0.000,0.000
111.0,31505.7, 4, 43.0740116532, 141.3364439195,14.404000, 527390.0627,4769088.6390,0.01,237.330, 0.000,0.000,0.000,0.000,0.000,0.000,0.000,0.000,0.000
111.5,31506.2, 4, 43.0740094657, 141.3364391545,14.400000, 527389.6758,4769088.3945,0.01,236.960, 0.000,0.000,0.000,0.000,0.000,0.000,0.000,0.000,0.000
112.0,31506.7, 4, 43.0740072657, 141.3364344287,14.396000, 527389.2920,4769088.1486,0.01,238.870, 0.000,0.000,0.000,0.000,0.000,0.000,0.000,0.000,0.000
112.5,31507.2, 4, 43.0740050358, 141.3364296062,14.390000, 527388.9004,4769087.8994,0.01,237.560, 0.000,0.000,0.000,0.000,0.000,0.000,0.000,0.000,0.000
113.0,31507.7, 4, 43.0740028155, 141.3364249748,14.387000, 527388.5244,4769087.6514,0.01,238.340, 0.000,0.000,0.000,0.000,0.000,0.000,0.000,0.000,0.000
113.5,31508.2, 4, 43.0740005488, 141.3364202090,14.386000, 527388.1374,4769087.3981,0.01,236.510, 0.000,0.000,0.000,0.000,0.000,0.000,0.000,0.000,0.000
114.0,31508.7, 4, 43.0739984382, 141.3364154317,14.380000, 527387.7494,4769087.1622,0.01,238.720, 0.000,0.000,0.000,0.000,0.000,0.000,0.000,0.000,0.000
114.5,31509.2, 4, 43.0739963325, 141.3364106128,14.373000, 527387.3580,4769086.9267,0.01,238.420, 0.000,0.000,0.000,0.000,0.000,0.000,0.000,0.000,0.000
115.0,31509.7, 4, 43.0739942975, 141.3364059388,14.369000, 527386.9784,4769086.6992,0.01,239.130, 0.000,0.000,0.000,0.000,0.000,0.000,0.000,0.000,0.000
115.5,31510.2, 4, 43.0739922253, 141.3364011400,14.366000, 527386.5887,4769086.4676,0.01,238.060, 0.000,0.000,0.000,0.000,0.000,0.000,0.000,0.000,0.000
116.0,31510.7, 4, 43.0739903408, 141.3363967093,14.360000, 527386.2288,4769086.2568,0.01,239.340, 0.000,0.000,0.000,0.000,0.000,0.000,0.000,0.000,0.000
116.5,31511.2, 4, 43.0739890043, 141.3363933922,14.360000, 527385.9593,4769086.1073,0.01,239.590, 0.000,0.000,0.000,0.000,0.000,0.000,0.000,0.000,0.000
117.0,31511.7, 4, 43.0739874670, 141.3363895995,14.360000, 527385.6513,4769085.9354,0.01,240.600, 0.000,0.000,0.000,0.000,0.000,0.000,0.000,0.000,0.000
117.5,31512.2, 4, 43.0739857873, 141.3363857645,14.363000, 527385.3398,4769085.7476,0.01,237.260, 0.000,0.000,0.000,0.000,0.000,0.000,0.000,0.000,0.000
118.0,31512.7, 4, 43.0739841352, 141.3363820203,14.364000, 527385.0357,4769085.5629,0.01,239.310, 0.000,0.000,0.000,0.000,0.000,0.000,0.000,0.000,0.000
118.5,31513.2, 4, 43.0739824470, 141.3363782407,14.355000, 527384.7288,4769085.3742,0.01,237.680, 0.000,0.000,0.000,0.000,0.000,0.000,0.000,0.000,0.000
119.0,31513.7, 4, 43.0739808415, 141.3363744632,14.354000, 527384.4220,4769085.1947,0.01,240.210, 0.000,0.000,0.000,0.000,0.000,0.000,0.000,0.000,0.000
119.5,31514.2, 4, 43.0739792980, 141.3363708310,14.350000, 527384.1270,4769085.0221,0.01,236.690, 0.000,0.000,0.000,0.000,0.000,0.000,0.000,0.000,0.000
120.0,31514.7, 4, 43.0739776803, 141.3363671222,14.353000, 527383.8257,4769084.8412,0.01,239.160, 0.000,0.000,0.000,0.000,0.000,0.000,0.000,0.000,0.000
120.5,31515.2, 4, 43.0739760725, 141.3363634563,14.354000, 527383.5280,4769084.6615,1.18,238.320, 0.000,0.000,0.000,0.000,0.000,0.000,0.000,0.000,0.000
121.0,31515.7, 4, 43.0739743890, 141.3363598335,14.353000, 527383.2338,4769084.4733,0.26,240.170, 0.000,0.000,0.000,0.000,0.000,0.000,0.000,0.000,0.000
121.5,31516.2, 4, 43.0739728522, 141.3363562823,14.354000, 527382.9454,4769084.3015,0.14,242.520, 0.000,0.000,0.000,0.000,0.000,0.000,0.000,0.000,0.000
122.0,31516.7, 4, 43.0739714877, 141.3363525168,14.351000, 527382.6395,4769084.1488,0.12,244.000, 0.000,0.000,0.000,0.000,0.000,0.000,0.000,0.000,0.000
122.5,31517.2, 4, 43.0739704378, 141.3363486228,14.347000, 527382.3229,4769084.0309,0.08,251.550, 0.000,0.000,0.000,0.000,0.000,0.000,0.000,0.000,0.000
123.0,31517.7, 4, 43.0739696935, 141.3363444643,14.347000, 527381.9847,4769083.9469,0.08,258.200, 0.000,0.000,0.000,0.000,0.000,0.000,0.000,0.000,0.000
123.5,31518.2, 4, 43.0739693382, 141.3363401402,14.345000, 527381.6328,4769083.9060,0.08,260.500, 0.000,0.000,0.000,0.000,0.000,0.000,0.000,0.000,0.000
124.0,31518.7, 4, 43.0739693292, 141.3363356688,14.339000, 527381.2688,4769083.9036,0.05,268.800, 0.000,0.000,0.000,0.000,0.000,0.000,0.000,0.000,0.000
124.5,31519.2, 4, 43.0739696123, 141.3363313642,14.329000, 527380.9182,4769083.9336,0.03,273.520, 0.000,0.000,0.000,0.000,0.000,0.000,0.000,0.000,0.000
125.0,31519.7, 4, 43.0739701683, 141.3363269385,14.325000, 527380.5577,4769083.9939,0.03,277.570, 0.000,0.000,0.000,0.000,0.000,0.000,0.000,0.000,0.000
125.5,31520.2, 4, 43.0739710837, 141.3363225922,14.308000, 527380.2035,4769084.0941,0.04,270.220, 0.000,0.000,0.000,0.000,0.000,0.000,0.000,0.000,0.000
126.0,31520.7, 4, 43.0739722245, 141.3363180700,14.286000, 527379.8348,4769084.2193,0.04,267.860, 0.000,0.000,0.000,0.000,0.000,0.000,0.000,0.000,0.000
126.5,31521.2, 4, 43.0739737748, 141.3363136337,14.252000, 527379.4729,4769084.3901,0.05,274.530, 0.000,0.000,0.000,0.000,0.000,0.000,0.000,0.000,0.000
127.0,31521.7, 4, 43.0739754065, 141.3363098662,14.237000, 527379.1655,4769084.5700,0.04,280.750, 0.000,0.000,0.000,0.000,0.000,0.000,0.000,0.000,0.000
127.5,31522.2, 4, 43.0739772178, 141.3363059165,14.208000, 527378.8432,4769084.7699,0.04,284.000, 0.000,0.000,0.000,0.000,0.000,0.000,0.000,0.000,0.000
128.0,31522.7, 4, 43.0739788962, 141.3363019093,14.186000, 527378.5162,4769084.9550,0.03,282.620, 0.000,0.000,0.000,0.000,0.000,0.000,0.000,0.000,0.000
128.5,31523.2, 4, 43.0739803477, 141.3362986050,14.179000, 527378.2465,4769085.1151,0.03,286.030, 0.000,0.000,0.000,0.000,0.000,0.000,0.000,0.000,0.000
129.0,31523.7, 4, 43.0739819623, 141.3362952215,14.169000, 527377.9704,4769085.2933,0.03,291.320, 0.000,0.000,0.000,0.000,0.000,0.000,0.000,0.000,0.000
129.5,31524.2, 4, 43.0739836970, 141.3362920582,14.160000, 527377.7121,4769085.4849,0.02,292.920, 0.000,0.000,0.000,0.000,0.000,0.000,0.000,0.000,0.000
130.0,31524.7, 4, 43.0739852685, 141.3362888528,14.146000, 527377.4504,4769085.6583,0.03,288.450, 0.000,0.000,0.000,0.000,0.000,0.000,0.000,0.000,0.000
130.5,31525.2, 4, 43.0739866397, 141.3362852422,14.129000, 527377.1558,4769085.8094,0.02,283.400, 0.000,0.000,0.000,0.000,0.000,0.000,0.000,0.000,0.000
131.0,31525.7, 4, 43.0739877470, 141.3362811077,14.115000, 527376.8188,4769085.9311,0.02,287.770, 0.000,0.000,0.000,0.000,0.000,0.000,0.000,0.000,0.000
131.5,31526.2, 4, 43.0739887513, 141.3362769567,14.101000, 527376.4804,4769086.0412,0.01,285.240, 0.000,0.000,0.000,0.000,0.000,0.000,0.000,0.000,0.000
132.0,31526.7, 4, 43.0739895322, 141.3362719677,14.086000, 527376.0739,4769086.1263,0.01,290.910, 0.000,0.000,0.000,0.000,0.000,0.000,0.000,0.000,0.000
132.5,31527.2, 4, 43.0739900730, 141.3362681065,14.088000, 527375.7593,4769086.1851,0.01,292.750, 0.000,0.000,0.000,0.000,0.000,0.000,0.000,0.000,0.000
133.0,31527.7, 4, 43.0739905885, 141.3362635463,14.078000, 527375.3878,4769086.2409,0.01,294.910, 0.000,0.000,0.000,0.000,0.000,0.000,0.000,0.000,0.000
133.5,31528.2, 4, 43.0739910762, 141.3362594957,14.059000, 527375.0578,4769086.2937,0.01,294.830, 0.000,0.000,0.000,0.000,0.000,0.000,0.000,0.000,0.000
134.0,31528.7, 4, 43.0739912752, 141.3362551132,14.046000, 527374.7010,4769086.3144,0.02,291.140, 0.000,0.000,0.000,0.000,0.000,0.000,0.000,0.000,0.000
134.5,31529.2, 4, 43.0739911817, 141.3362510063,14.036000, 527374.3667,4769086.3027,0.01,281.100, 0.000,0.000,0.000,0.000,0.000,0.000,0.000,0.000,0.000
135.0,31529.7, 4, 43.0739906673, 141.3362466467,14.027000, 527374.0120,4769086.2441,0.01,273.490, 0.000,0.000,0.000,0.000,0.000,0.000,0.000,0.000,0.000
135.5,31530.2, 4, 43.0739899313, 141.3362424980,14.036000, 527373.6746,4769086.1610,0.01,267.830, 0.000,0.000,0.000,0.000,0.000,0.000,0.000,0.000,0.000
136.0,31530.7, 4, 43.0739889192, 141.3362382857,14.030000, 527373.3321,4769086.0473,0.01,264.430, 0.000,0.000,0.000,0.000,0.000,0.000,0.000,0.000,0.000
136.5,31531.2, 4, 43.0739877647, 141.3362342822,14.024000, 527373.0067,4769085.9177,0.01,258.700, 0.000,0.000,0.000,0.000,0.000,0.000,0.000,0.000,0.000
137.0,31531.7, 4, 43.0739864363, 141.3362305448,14.019000, 527372.7030,4769085.7690,0.01,256.620, 0.000,0.000,0.000,0.000,0.000,0.000,0.000,0.000,0.000
137.5,31532.2, 4, 43.0739849953, 141.3362268318,14.018000, 527372.4014,4769085.6078,0.01,252.910, 0.000,0.000,0.000,0.000,0.000,0.000,0.000,0.000,0.000
138.0,31532.7, 4, 43.0739835022, 141.3362232412,14.025000, 527372.1097,4769085.4408,0.01,250.050, 0.000,0.000,0.000,0.000,0.000,0.000,0.000,0.000,0.000
138.5,31533.2, 4, 43.0739820615, 141.3362195690,14.024000, 527371.8114,4769085.2796,0.01,244.210, 0.000,0.000,0.000,0.000,0.000,0.000,0.000,0.000,0.000
139.0,31533.7, 4, 43.0739805435, 141.3362159708,14.026000, 527371.5191,4769085.1099,0.01,250.480, 0.000,0.000,0.000,0.000,0.000,0.000,0.000,0.000,0.000
139.5,31534.2, 4, 43.0739790382, 141.3362122410,14.020000, 527371.2162,4769084.9415,0.01,251.320, 0.000,0.000,0.000,0.000,0.000,0.000,0.000,0.000,0.000
140.0,31534.7, 4, 43.0739775358, 141.3362085563,14.040000, 527370.9169,4769084.7734,0.01,254.390, 0.000,0.000,0.000,0.000,0.000,0.000,0.000,0.000,0.000
140.5,31535.2, 4, 43.0739760692, 141.3362046653,14.043000, 527370.6007,4769084.6093,0.01,250.430, 0.000,0.000,0.000,0.000,0.000,0.000,0.000,0.000,0.000
141.0,31535.7, 4, 43.0739747038, 141.3362009720,14.052000, 527370.3007,4769084.4565,0.01,256.740, 0.000,0.000,0.000,0.000,0.000,0.000,0.000,0.000,0.000
141.5,31536.2, 4, 43.0739730943, 141.3361969108,14.049000, 527369.9708,4769084.2764,0.01,255.990, 0.000,0.000,0.000,0.000,0.000,0.000,0.000,0.000,0.000
142.0,31536.7, 4, 43.0739715472, 141.3361931920,14.056000, 527369.6687,4769084.1034,0.01,251.430, 0.000,0.000,0.000,0.000,0.000,0.000,0.000,0.000,0.000
142.5,31537.2, 4, 43.0739700470, 141.3361892942,14.057000, 527369.3520,4769083.9355,0.01,248.530, 0.000,0.000,0.000,0.000,0.000,0.000,0.000,0.000,0.000
143.0,31537.7, 4, 43.0739684332, 141.3361851617,14.054000, 527369.0163,4769083.7550,0.01,253.640, 0.000,0.000,0.000,0.000,0.000,0.000,0.000,0.000,0.000
143.5,31538.2, 4, 43.0739670705, 141.3361813863,14.056000, 527368.7096,4769083.6024,0.01,250.370, 0.000,0.000,0.000,0.000,0.000,0.000,0.000,0.000,0.000
144.0,31538.7, 4, 43.0739656027, 141.3361775868,14.067000, 527368.4009,4769083.4382,0.01,249.990, 0.000,0.000,0.000,0.000,0.000,0.000,0.000,0.000,0.000
144.5,31539.2, 4, 43.0739641075, 141.3361735620,14.056000, 527368.0739,4769083.2708,0.01,249.660, 0.000,0.000,0.000,0.000,0.000,0.000,0.000,0.000,0.000
145.0,31539.7, 4, 43.0739626033, 141.3361696660,14.063000, 527367.7574,4769083.1025,0.01,254.900, 0.000,0.000,0.000,0.000,0.000,0.000,0.000,0.000,0.000
145.5,31540.2, 4, 43.0739609490, 141.3361656142,14.057000, 527367.4283,4769082.9175,0.01,246.560, 0.000,0.000,0.000,0.000,0.000,0.000,0.000,0.000,0.000
146.0,31540.7, 4, 43.0739592103, 141.3361609735,14.035000, 527367.0513,4769082.7229,0.01,251.190, 0.000,0.000,0.000,0.000,0.000,0.000,0.000,0.000,0.000
146.5,31541.2, 4, 43.0739580380, 141.3361577608,14.048000, 527366.7902,4769082.5916,0.01,246.740, 0.000,0.000,0.000,0.000,0.000,0.000,0.000,0.000,0.000
147.0,31541.7, 4, 43.0739564693, 141.3361540277,14.051000, 527366.4870,4769082.4162,0.01,248.750, 0.000,0.000,0.000,0.000,0.000,0.000,0.000,0.000,0.000
147.5,31542.2, 4, 43.0739546742, 141.3361500313,14.035000, 527366.1625,4769082.2156,0.01,243.570, 0.000,0.000,0.000,0.000,0.000,0.000,0.000,0.000,0.000
148.0,31542.7, 4, 43.0739530077, 141.3361458998,14.019000, 527365.8269,4769082.0291,0.01,244.010, 0.000,0.000,0.000,0.000,0.000,0.000,0.000,0.000,0.000
148.5,31543.2, 4, 43.0739518922, 141.3361421803,14.015000, 527365.5246,4769081.9041,0.01,251.210, 0.000,0.000,0.000,0.000,0.000,0.000,0.000,0.000,0.000
149.0,31543.7, 4, 43.0739504450, 141.3361384757,14.007000, 527365.2236,4769081.7421,0.01,253.100, 0.000,0.000,0.000,0.000,0.000,0.000,0.000,0.000,0.000
149.5,31544.2, 4, 43.0739490952, 141.3361345037,14.013000, 527364.9008,4769081.5909,0.01,247.490, 0.000,0.000,0.000,0.000,0.000,0.000,0.000,0.000,0.000
150.0,31544.7, 4, 43.0739472327, 141.3361301752,14.007000, 527364.5493,4769081.3827,0.01,240.770, 0.000,0.000,0.000,0.000,0.000,0.000,0.000,0.000,0.000
150.5,31545.2, 4, 43.0739457797, 141.3361268155,14.007000, 527364.2764,4769081.2203,0.01,243.250, 0.000,0.000,0.000,0.000,0.000,0.000,0.000,0.000,0.000
151.0,31545.7, 4, 43.0739445023, 141.3361229943,14.000000, 527363.9659,4769081.0772,0.01,254.630, 0.000,0.000,0.000,0.000,0.000,0.000,0.000,0.000,0.000
151.5,31546.2, 4, 43.0739431005, 141.3361189088,13.986000, 527363.6339,4769080.9202,0.01,245.230, 0.000,0.000,0.000,0.000,0.000,0.000,0.000,0.000,0.000
152.0,31546.7, 4, 43.0739417248, 141.3361147295,13.995000, 527363.2943,4769080.7660,0.01,250.870, 0.000,0.000,0.000,0.000,0.000,0.000,0.000,0.000,0.000
152.5,31547.2, 4, 43.0739402785, 141.3361113652,14.004000, 527363.0210,4769080.6043,0.01,243.730, 0.000,0.000,0.000,0.000,0.000,0.000,0.000,0.000,0.000
153.0,31547.7, 4, 43.0739388120, 141.3361078893,14.004000, 527362.7387,4769080.4403,0.01,247.130, 0.000,0.000,0.000,0.000,0.000,0.000,0.000,0.000,0.000
153.5,31548.2, 4, 43.0739371127, 141.3361035478,13.991000, 527362.3860,4769080.2502,0.01,248.990, 0.000,0.000,0.000,0.000,0.000,0.000,0.000,0.000,0.000
154.0,31548.7, 4, 43.0739357997, 141.3360999422,14.001000, 527362.0931,4769080.1032,0.01,250.740, 0.000,0.000,0.000,0.000,0.000,0.000,0.000,0.000,0.000
154.5,31549.2, 4, 43.0739344777, 141.3360958878,13.992000, 527361.7636,4769079.9551,0.01,250.160, 0.000,0.000,0.000,0.000,0.000,0.000,0.000,0.000,0.000
155.0,31549.7, 4, 43.0739331032, 141.3360919613,13.989000, 527361.4446,4769079.8012,0.01,252.150, 0.000,0.000,0.000,0.000,0.000,0.000,0.000,0.000,0.000
155.5,31550.2, 4, 43.0739314883, 141.3360878675,13.987000, 527361.1120,4769079.6205,0.01,241.470, 0.000,0.000,0.000,0.000,0.000,0.000,0.000,0.000,0.000
156.0,31550.7, 4, 43.0739301387, 141.3360843415,14.006000, 527360.8255,4769079.4695,0.01,245.770, 0.000,0.000,0.000,0.000,0.000,0.000,0.000,0.000,0.000
156.5,31551.2, 4, 43.0739284538, 141.3360801985,13.994000, 527360.4890,4769079.2810,0.01,245.020, 0.000,0.000,0.000,0.000,0.000,0.000,0.000,0.000,0.000
157.0,31551.7, 4, 43.0739271028, 141.3360767183,14.007000, 527360.2063,4769079.1299,0.01,245.210, 0.000,0.000,0.000,0.000,0.000,0.000,0.000,0.000,0.000
157.5,31552.2, 4, 43.0739255913, 141.3360728168,14.008000, 527359.8893,4769078.9607,0.01,243.640, 0.000,0.000,0.000,0.000,0.000,0.000,0.000,0.000,0.000
158.0,31552.7, 4, 43.0739241655, 141.3360689482,14.007000, 527359.5750,4769078.8011,0.01,245.620, 0.000,0.000,0.000,0.000,0.000,0.000,0.000,0.000,0.000
158.5,31553.2, 4, 43.0739227128, 141.3360647978,14.005000, 527359.2378,4769078.6385,0.01,249.420, 0.000,0.000,0.000,0.000,0.000,0.000,0.000,0.000,0.000
159.0,31553.7, 4, 43.0739210872, 141.3360605120,13.994000, 527358.8896,4769078.4565,0.01,245.140, 0.000,0.000,0.000,0.000,0.000,0.000,0.000,0.000,0.000
159.5,31554.2, 4, 43.0739198040, 141.3360568785,14.006000, 527358.5944,4769078.3128,0.01,243.900, 0.000,0.000,0.000,0.000,0.000,0.000,0.000,0.000,0.000
160.0,31554.7, 4, 43.0739188840, 141.3360544927,14.003000, 527358.4005,4769078.2099,0.00,256.120, 0.000,0.000,0.000,0.000,0.000,0.000,0.000,0.000,0.000
160.5,31555.2, 4, 43.0739187435, 141.3360542562,14.004000, 527358.3813,4769078.1942,0.00,206.560, 0.000,0.000,0.000,0.000,0.000,0.000,0.000,0.000,0.000
161.0,31555.7, 4, 43.0739188647, 141.3360545837,14.003000, 527358.4080,4769078.2078,0.00,63.840, 0.000,0.000,0.000,0.000,0.000,0.000,0.000,0.000,0.000
161.5,31556.2, 4, 43.0739189280, 141.3360546493,13.987000, 527358.4133,4769078.2148,0.00,210.680, 0.000,0.000,0.000,0.000,0.000,0.000,0.000,0.000,0.000
162.0,31556.7, 4, 43.0739189340, 141.3360546450,13.987000, 527358.4129,4769078.2155,0.00,9.390, 0.000,0.000,0.000,0.000,0.000,0.000,0.000,0.000,0.000
162.5,31557.2, 4, 43.0739189265, 141.3360546378,13.990000, 527358.4123,4769078.2147,0.00,227.240, 0.000,0.000,0.000,0.000,0.000,0.000,0.000,0.000,0.000
163.0,31557.7, 4, 43.0739189295, 141.3360546487,13.990000, 527358.4132,4769078.2150,0.00,26.670, 0.000,0.000,0.000,0.000,0.000,0.000,0.000,0.000,0.000
163.5,31558.2, 4, 43.0739189155, 141.3360546435,13.978000, 527358.4128,4769078.2135,0.00,229.150, 0.000,0.000,0.000,0.000,0.000,0.000,0.000,0.000,0.000
164.0,31558.7, 4, 43.0739189098, 141.3360546502,13.980000, 527358.4133,4769078.2128,0.00,299.880, 0.000,0.000,0.000,0.000,0.000,0.000,0.000,0.000,0.000
164.5,31559.2, 4, 43.0739189253, 141.3360546433,13.983000, 527358.4128,4769078.2145,0.00,193.400, 0.000,0.000,0.000,0.000,0.000,0.000,0.000,0.000,0.000
165.0,31559.7, 4, 43.0739189180, 141.3360546612,13.990000, 527358.4142,4769078.2137,0.00,16.500, 0.000,0.000,0.000,0.000,0.000,0.000,0.000,0.000,0.000
165.5,31600.2, 4, 43.0739189093, 141.3360546697,13.990000, 527358.4149,4769078.2128,0.00,214.350, 0.000,0.000,0.000,0.000,0.000,0.000,0.000,0.000,0.000
166.0,31600.7, 4, 43.0739188930, 141.3360546797,13.992000, 527358.4158,4769078.2110,0.00,70.410, 0.000,0.000,0.000,0.000,0.000,0.000,0.000,0.000,0.000
166.5,31601.2, 4, 43.0739189102, 141.3360546712,13.986000, 527358.4151,4769078.2129,0.00,225.850, 0.000,0.000,0.000,0.000,0.000,0.000,0.000,0.000,0.000
167.0,31601.7, 4, 43.0739189302, 141.3360546100,13.981000, 527358.4101,4769078.2151,0.00,235.620, 0.000,0.000,0.000,0.000,0.000,0.000,0.000,0.000,0.000
167.5,31602.2, 4, 43.0739189333, 141.3360546178,13.980000, 527358.4107,4769078.2154,0.00,282.340, 0.000,0.000,0.000,0.000,0.000,0.000,0.000,0.000,0.000
168.0,31602.7, 4, 43.0739189115, 141.3360546568,13.988000, 527358.4139,4769078.2130,0.00,305.210, 0.000,0.000,0.000,0.000,0.000,0.000,0.000,0.000,0.000
168.5,31603.2, 4, 43.0739189015, 141.3360546765,13.986000, 527358.4155,4769078.2119,0.00,248.020, 0.000,0.000,0.000,0.000,0.000,0.000,0.000,0.000,0.000
169.0,31603.7, 4, 43.0739189043, 141.3360546692,13.985000, 527358.4149,4769078.2122,0.00,33.680, 0.000,0.000,0.000,0.000,0.000,0.000,0.000,0.000,0.000
169.5,31604.2, 4, 43.0739189057, 141.3360546758,13.983000, 527358.4154,4769078.2124,0.00,239.550, 0.000,0.000,0.000,0.000,0.000,0.000,0.000,0.000,0.000
170.0,31604.7, 4, 43.0739189263, 141.3360546565,13.988000, 527358.4139,4769078.2147,0.00,319.510, 0.000,0.000,0.000,0.000,0.000,0.000,0.000,0.000,0.000
