
[2021-02-23 09:29:46.925] $GPGGA,,,,,,,,,,M,,M,,*56
[2021-02-23 09:29:46.956] $GPGGA,,,,,,,,,,M,,M,,*56
[2021-02-23 09:29:46.956] $GPGGA,,,,,,,,,,M,,M,,*56
[2021-02-23 09:29:46.956] $GPGGA,,,,,,,,,,M,,M,,*56
[2021-02-23 09:29:46.956] $GPGGA,,,,,,,,,,M,,M,,*56
[2021-02-23 09:29:46.956] $GPGGA,,,,,,,,,,M,,M,,*56
[2021-02-23 09:29:46.956] $GPGGA,,,,,,,,,,M,,M,,*56
[2021-02-23 09:29:46.956] $GPGGA,,,,,,,,,,M,,M,,*56
[2021-02-23 09:29:46.956] $GPGGA,,,,,,,,,,M,,M,,*56
[2021-02-23 09:29:46.956] $GPGGA,,,,,,,,,,M,,M,,*56
[2021-02-23 09:29:46.956] $GPGGA,,,,,,,,,,M,,M,,*56
[2021-02-23 09:29:46.956] $GPGGA,,,,,,,,,,M,,M,,*56
[2021-02-23 09:29:46.956] $GPGGA,,,,,,,,,,M,,M,,*56
[2021-02-23 09:29:46.956] $GPGGA,,,,,,,,,,M,,M,,*56
[2021-02-23 09:29:46.956] $GPGGA,,,,,,,,,,M,,M,,*56
[2021-02-23 09:29:46.956] $GPGGA,,,,,,,,,,M,,M,,*56
[2021-02-23 09:29:46.956] $GPGGA,,,,,,,,,,M,,M,,*56
[2021-02-23 09:29:46.956] $GPGGA,,,,,,,,,,M,,M,,*56
[2021-02-23 09:29:46.956] $GPGGA,,,,,,,,,,M,,M,,*56
[2021-02-23 09:29:46.956] $GPGGA,,,,,,,,,,M,,M,,*56
[2021-02-23 09:29:46.956] $GPGGA,,,,,,,,,,M,,M,,*56
[2021-02-23 09:29:46.956] $GPGGA,,,,,,,,,,M,,M,,*56
[2021-02-23 09:29:46.956] $GPGGA,,,,,,,,,,M,,M,,*56
[2021-02-23 09:29:46.956] $GPGGA,,,,,,,,,,M,,M,,*56
[2021-02-23 09:29:46.956] $GPGGA,,,,,,,,,,M,,M,,*56
[2021-02-23 09:29:46.956] $GPGGA,,,,,,,,,,M,,M,,*56
[2021-02-23 09:29:46.956] $GPGGA,,,,,,,,,,M,,M,,*56
[2021-02-23 09:29:46.956] $GPGGA,,,,,,,,,,M,,M,,*56
[2021-02-23 09:29:46.956] $GPGGA,,,,,,,,,,M,,M,,*56
[2021-02-23 09:29:46.956] $GPGGA,,,,,,,,,,M,,M,,*56
[2021-02-23 09:29:46.956] $GPGGA,,,,,,,,,,M,,M,,*56
[2021-02-23 09:29:46.956] $GPGGA,,,,,,,,,,M,,M,,*56
[2021-02-23 09:29:46.956] $GPGGA,,,,,,,,,,M,,M,,*56
[2021-02-23 09:29:46.956] $GPGGA,,,,,,,,,,M,,M,,*56
[2021-02-23 09:29:46.956] $GPGGA,,,,,,,,,,M,,M,,*56
[2021-02-23 09:29:46.956] $GPGGA,,,,,,,,,,M,,M,,*56
[2021-02-23 09:29:46.956] $GPGGA,,,,,,,,,,M,,M,,*56
[2021-02-23 09:29:46.956] $GPGGA,,,,,,,,,,M,,M,,*56
[2021-02-23 09:29:46.956] $GPGGA,,,,,,,,,,M,,M,,*56
[2021-02-23 09:29:46.956] $GPGGA,,,,,,,,,,M,,M,,*56
[2021-02-23 09:29:46.956] $GPGGA,,,,,,,,,,M,,M,,*56
[2021-02-23 09:29:46.956] $GPGGA,,,,,,,,,,M,,M,,*56
[2021-02-23 09:29:46.956] $GPGGA,,,,,,,,,,M,,M,,*56
[2021-02-23 09:29:46.956] $GPGGA,,,,,,,,,,M,,M,,*56
[2021-02-23 09:29:46.956] $GPGGA,,,,,,,,,,M,,M,,*56
[2021-02-23 09:29:46.956] $GPGGA,,,,,,,,,,M,,M,,*56
[2021-02-23 09:29:46.956] $GPGGA,,,,,,,,,,M,,M,,*56
[2021-02-23 09:29:46.956] $GPGGA,,,,,,,,,,M,,M,,*56
[2021-02-23 09:29:46.956] $GPGGA,,,,,,,,,,M,,M,,*56
[2021-02-23 09:29:46.956] $GPGGA,,,,,,,,,,M,,M,,*56
[2021-02-23 09:29:46.956] $GPGGA,,,,,,,,,,M,,M,,*56
[2021-02-23 09:29:46.956] $GPGGA,,,,,,,,,,M,,M,,*56
[2021-02-23 09:29:46.956] $GPGGA,,,,,,,,,,M,,M,,*56
[2021-02-23 09:29:46.956] $GPGGA,,,,,,,,,,M,,M,,*56
[2021-02-23 09:29:46.956] $GPGGA,,,,,,,,,,M,,M,,*56
[2021-02-23 09:29:46.956] $GPGGA,,,,,,,,,,M,,M,,*56
[2021-02-23 09:29:46.956] $GPGGA,,,,,,,,,,M,,M,,*56
[2021-02-23 09:29:47.018] $GPGGA,,,,,,,,,,M,,M,,*56
[2021-02-23 09:29:47.237] $GPGGA,,,,,,,,,,M,,M,,*56
[2021-02-23 09:29:47.425] $GPGGA,,,,,,,,,,M,,M,,*56
[2021-02-23 09:29:47.628] $GPGGA,,,,,,,,,,M,,M,,*56
[2021-02-23 09:29:47.831] $GPGGA,,,,,,,,,,M,,M,,*56
[2021-02-23 09:29:48.034] $GPGGA,,,,,,,,,,M,,M,,*56
[2021-02-23 09:29:48.222] $GPGGA,,,,,,,,,,M,,M,,*56
[2021-02-23 09:29:48.425] $GPGGA,,,,,,,,,,M,,M,,*56
[2021-02-23 09:29:48.628] $GPGGA,,,,,,,,,,M,,M,,*56
[2021-02-23 09:29:48.831] $GPGGA,,,,,,,,,,M,,M,,*56
[2021-02-23 09:29:49.018] $GPGGA,,,,,,,,,,M,,M,,*56
[2021-02-23 09:29:49.237] $GPGGA,,,,,,,,,,M,,M,,*56
[2021-02-23 09:29:49.425] $GPGGA,,,,,,,,,,M,,M,,*56
[2021-02-23 09:29:49.628] $GPGGA,,,,,,,,,,M,,M,,*56
[2021-02-23 09:29:49.831] $GPGGA,,,,,,,,,,M,,M,,*56
[2021-02-23 09:29:50.034] $GPGGA,,,,,,,,,,M,,M,,*56
[2021-02-23 09:29:50.221] $GPGGA,,,,,,,,,,M,,M,,*56
[2021-02-23 09:29:50.440] $GPGGA,,,,,,,,,,M,,M,,*56
[2021-02-23 09:29:50.628] $GPGGA,,,,,,,,,,M,,M,,*56
[2021-02-23 09:29:50.831] $GPGGA,,,,,,,,,,M,,M,,*56
[2021-02-23 09:29:51.018] $GPGGA,,,,,,,,,,M,,M,,*56
[2021-02-23 09:29:51.237] $GPGGA,,,,,,,,,,M,,M,,*56
[2021-02-23 09:29:51.424] $GPGGA,,,,,,,,,,M,,M,,*56
[2021-02-23 09:29:51.628] $GPGGA,,,,,,,,,,M,,M,,*56
[2021-02-23 09:29:51.815] $GPGGA,,,,,,,,,,M,,M,,*56
[2021-02-23 09:29:52.034] $GPGGA,,,,,,,,,,M,,M,,*56
[2021-02-23 09:29:52.221] $GPGGA,,,,,,,,,,M,,M,,*56
[2021-02-23 09:29:52.440] $GPGGA,,,,,,,,,,M,,M,,*56
[2021-02-23 09:29:52.612] $GPGGA,,,,,,,,,,M,,M,,*56
[2021-02-23 09:29:52.831] $GPGGA,,,,,,,,,,M,,M,,*56
[2021-02-23 09:29:53.049] $GPGGA,002952.40,3714.00683845,N,13701.48783329,E,2,05,3.7,100.077,M,36.772,M,50.4,0022*76
[2021-02-23 09:29:53.252] $GPGGA,002952.60,3714.00602037,N,13701.48839991,E,1,09,1.4,103.896,M,36.772,M,,*62
[2021-02-23 09:29:53.346] $GPGGA,002952.70,3714.00602057,N,13701.48839915,E,1,09,1.4,103.895,M,36.772,M,,*6A
[2021-02-23 09:29:53.455] $GPGGA,002952.80,3714.00574288,N,13701.48910896,E,2,06,3.1,101.672,M,36.772,M,50.8,0022*7A
[2021-02-23 09:29:53.534] $GPGGA,002952.90,3714.00574287,N,13701.48910860,E,2,06,3.1,101.670,M,36.772,M,50.8,0022*7F
[2021-02-23 09:29:53.643] $GPGGA,002953.00,3714.00541103,N,13701.48956683,E,2,07,2.2,102.220,M,36.772,M,51.0,0022*77
[2021-02-23 09:29:53.737] $GPGGA,002953.10,3714.00541206,N,13701.48956619,E,2,07,2.2,102.218,M,36.772,M,51.0,0022*78
[2021-02-23 09:29:53.846] $GPGGA,002953.20,3714.00549545,N,13701.48939326,E,2,08,1.1,101.991,M,36.772,M,51.2,0022*77
[2021-02-23 09:29:53.940] $GPGGA,002953.30,3714.00549557,N,13701.48939263,E,2,08,1.1,101.991,M,36.772,M,51.2,0022*75
[2021-02-23 09:29:54.049] $GPGGA,002953.40,3714.00548095,N,13701.48940101,E,2,08,1.1,102.089,M,36.772,M,51.4,0022*74
[2021-02-23 09:29:54.143] $GPGGA,002953.50,3714.00548062,N,13701.48940182,E,2,08,1.1,102.090,M,36.772,M,51.4,0022*7E
[2021-02-23 09:29:54.252] $GPGGA,002953.60,3714.00546025,N,13701.48940209,E,2,08,1.1,102.111,M,36.772,M,51.6,0022*7A
[2021-02-23 09:29:54.346] $GPGGA,002953.70,3714.00545892,N,13701.48940286,E,2,08,1.1,102.108,M,36.772,M,51.6,0022*73
[2021-02-23 09:29:54.455] $GPGGA,002953.80,3714.00544873,N,13701.48940320,E,2,08,1.1,102.113,M,36.772,M,51.8,0022*7B
[2021-02-23 09:29:54.549] $GPGGA,002953.90,3714.00544832,N,13701.48940336,E,2,08,1.1,102.110,M,36.772,M,51.8,0022*7B
[2021-02-23 09:29:54.643] $GPGGA,002954.00,3714.00543623,N,13701.48939640,E,2,08,1.1,102.098,M,36.772,M,52.0,0022*7C
[2021-02-23 09:29:54.737] $GPGGA,002954.10,3714.00543603,N,13701.48939644,E,2,08,1.1,102.095,M,36.772,M,52.0,0022*76
[2021-02-23 09:29:54.846] $GPGGA,002954.20,3714.00542397,N,13701.48938159,E,2,08,1.1,102.093,M,36.772,M,52.2,0022*72
[2021-02-23 09:29:54.940] $GPGGA,002954.30,3714.00542437,N,13701.48938115,E,2,08,1.1,102.090,M,36.772,M,52.2,0022*75
[2021-02-23 09:29:55.049] $GPGGA,002954.40,3714.00541416,N,13701.48936970,E,2,08,1.1,102.069,M,36.772,M,52.4,0022*77
[2021-02-23 09:29:55.143] $GPGGA,002954.50,3714.00541508,N,13701.48937012,E,2,08,1.1,102.066,M,36.772,M,52.4,0022*7B
[2021-02-23 09:29:55.252] $GPGGA,002954.60,3714.00541315,N,13701.48935448,E,2,08,1.1,102.021,M,36.772,M,52.6,0022*7A
[2021-02-23 09:29:55.346] $GPGGA,002954.70,3714.00541438,N,13701.48935387,E,2,08,1.1,102.016,M,36.772,M,52.6,0022*73
[2021-02-23 09:29:55.455] $GPGGA,002954.80,3714.00547081,N,13701.48929359,E,2,09,1.0,102.011,M,36.772,M,52.8,0022*7B
[2021-02-23 09:29:55.533] $GPGGA,002954.90,3714.00547325,N,13701.48929366,E,2,08,1.0,102.003,M,36.772,M,52.8,0022*79
[2021-02-23 09:29:55.643] $GPGGA,002955.00,3714.00549383,N,13701.48926373,E,2,09,1.0,101.981,M,36.772,M,53.0,0022*70
[2021-02-23 09:29:55.737] $GPGGA,002955.10,3714.00549584,N,13701.48926354,E,2,09,1.0,101.976,M,36.772,M,53.0,0022*7D
[2021-02-23 09:29:55.846] $GPGGA,002955.20,3714.00551677,N,13701.48923482,E,2,09,1.0,101.947,M,36.772,M,53.2,0022*71
[2021-02-23 09:29:55.940] $GPGGA,002955.30,3714.00551757,N,13701.48923491,E,2,09,1.0,101.943,M,36.772,M,53.2,0022*75
[2021-02-23 09:29:56.049] $GPGGA,002955.40,3714.00553188,N,13701.48921419,E,2,09,1.0,101.905,M,36.772,M,53.4,0022*72
[2021-02-23 09:29:56.143] $GPGGA,002955.50,3714.00553280,N,13701.48921400,E,2,09,1.0,101.899,M,36.772,M,53.4,0022*74
[2021-02-23 09:29:56.252] $GPGGA,002955.60,3714.00555106,N,13701.48919335,E,2,09,1.0,101.871,M,36.772,M,53.6,0022*72
[2021-02-23 09:29:56.346] $GPGGA,002955.70,3714.00555225,N,13701.48919152,E,2,09,1.0,101.870,M,36.772,M,53.6,0022*73
[2021-02-23 09:29:56.455] $GPGGA,002955.80,3714.00556888,N,13701.48917335,E,2,09,1.0,101.846,M,36.772,M,53.8,0022*74
[2021-02-23 09:29:56.533] $GPGGA,002955.90,3714.00556859,N,13701.48917444,E,2,09,1.0,101.852,M,36.772,M,53.8,0022*7D
[2021-02-23 09:29:56.658] $GPGGA,002956.00,3714.00558417,N,13701.48915683,E,2,09,1.0,101.833,M,36.772,M,54.0,0022*7C
[2021-02-23 09:29:56.737] $GPGGA,002956.10,3714.00558509,N,13701.48915643,E,2,09,1.0,101.833,M,36.772,M,54.0,0022*7F
[2021-02-23 09:29:56.846] $GPGGA,002956.20,3714.00559778,N,13701.48913992,E,2,09,1.0,101.817,M,36.772,M,54.2,0022*78
[2021-02-23 09:29:56.940] $GPGGA,002956.30,3714.00559803,N,13701.48914202,E,2,09,1.0,101.812,M,36.772,M,54.2,0022*7A
[2021-02-23 09:29:57.049] $GPGGA,002956.40,3714.00560794,N,13701.48912883,E,2,09,1.0,101.798,M,36.772,M,54.4,0022*78
[2021-02-23 09:29:57.143] $GPGGA,002956.50,3714.00560812,N,13701.48913042,E,2,09,1.0,101.797,M,36.772,M,54.4,0022*73
[2021-02-23 09:29:57.252] $GPGGA,002956.60,3714.00561698,N,13701.48912018,E,2,09,1.0,101.778,M,36.772,M,54.6,0022*70
[2021-02-23 09:29:57.346] $GPGGA,002956.70,3714.00561840,N,13701.48911938,E,2,09,1.0,101.780,M,36.772,M,54.6,0022*75
[2021-02-23 09:29:57.455] $GPGGA,002956.80,3714.00562418,N,13701.48911296,E,2,09,1.0,101.760,M,36.772,M,54.8,0022*77
[2021-02-23 09:29:57.549] $GPGGA,002956.90,3714.00562501,N,13701.48911281,E,2,09,1.0,101.759,M,36.772,M,54.8,0022*73
[2021-02-23 09:29:57.658] $GPGGA,002957.00,3714.00563094,N,13701.48910392,E,2,09,1.0,101.740,M,36.772,M,55.0,0022*70
[2021-02-23 09:29:57.736] $GPGGA,002957.10,3714.00563163,N,13701.48910383,E,2,09,1.0,101.734,M,36.772,M,55.0,0022*7B
[2021-02-23 09:29:57.846] $GPGGA,002957.20,3714.00563586,N,13701.48909491,E,2,09,1.0,101.716,M,36.772,M,55.2,0022*79
[2021-02-23 09:29:57.940] $GPGGA,002957.30,3714.00563707,N,13701.48909569,E,2,09,1.0,101.710,M,36.772,M,55.2,0022*73
[2021-02-23 09:29:58.049] $GPGGA,002957.40,3714.00564097,N,13701.48908470,E,2,09,1.0,101.690,M,36.772,M,55.4,0022*7A
[2021-02-23 09:29:58.143] $GPGGA,002957.50,3714.00564121,N,13701.48908502,E,2,09,1.0,101.689,M,36.772,M,55.4,0022*7B
[2021-02-23 09:29:58.252] $GPGGA,002957.60,3714.00564705,N,13701.48906985,E,2,09,1.0,101.665,M,36.772,M,55.6,0022*75
[2021-02-23 09:29:58.346] $GPGGA,002957.70,3714.00564695,N,13701.48907064,E,2,09,1.0,101.667,M,36.772,M,55.6,0022*79
[2021-02-23 09:29:58.455] $GPGGA,002957.80,3714.00568538,N,13701.48900742,E,2,09,1.0,101.548,M,36.772,M,0.8,0022*4A
[2021-02-23 09:29:58.549] $GPGGA,002957.90,3714.00568491,N,13701.48900765,E,2,09,1.0,101.549,M,36.772,M,0.8,0022*4D
[2021-02-23 09:29:58.643] $GPGGA,002958.00,3714.00571182,N,13701.48896329,E,2,09,1.0,101.438,M,36.772,M,1.0,0022*48
[2021-02-23 09:29:58.736] $GPGGA,002958.10,3714.00571125,N,13701.48896340,E,2,09,1.0,101.439,M,36.772,M,1.0,0022*4A
[2021-02-23 09:29:58.846] $GPGGA,002958.20,3714.00573347,N,13701.48892654,E,2,09,1.0,101.345,M,36.772,M,1.2,0022*47
[2021-02-23 09:29:58.939] $GPGGA,002958.30,3714.00573294,N,13701.48892870,E,2,09,1.0,101.351,M,36.772,M,1.2,0022*44
[2021-02-23 09:29:59.049] $GPGGA,002958.40,3714.00575064,N,13701.48890219,E,2,09,1.0,101.269,M,36.772,M,1.4,0022*43
[2021-02-23 09:29:59.143] $GPGGA,002958.50,3714.00574983,N,13701.48890108,E,2,09,1.0,101.264,M,36.772,M,1.4,0022*4D
[2021-02-23 09:29:59.252] $GPGGA,002958.60,3714.00576587,N,13701.48888121,E,2,09,1.0,101.193,M,36.772,M,1.6,0022*4F
[2021-02-23 09:29:59.346] $GPGGA,002958.70,3714.00576576,N,13701.48888332,E,2,09,1.0,101.191,M,36.772,M,1.6,0022*42
[2021-02-23 09:29:59.455] $GPGGA,002958.80,3714.00577868,N,13701.48887016,E,2,09,1.0,101.125,M,36.772,M,0.8,0022*44
[2021-02-23 09:29:59.549] $GPGGA,002958.90,3714.00577978,N,13701.48887040,E,2,09,1.0,101.125,M,36.772,M,0.8,0022*46
[2021-02-23 09:29:59.643] $GPGGA,002959.00,3714.00578925,N,13701.48885894,E,2,09,1.0,101.068,M,36.772,M,1.0,0022*4B
[2021-02-23 09:29:59.736] $GPGGA,002959.10,3714.00579025,N,13701.48885823,E,2,09,1.0,101.067,M,36.772,M,1.0,0022*41
[2021-02-23 09:29:59.846] $GPGGA,002959.20,3714.00579942,N,13701.48884805,E,2,09,1.0,101.013,M,36.772,M,1.2,0022*4E
[2021-02-23 09:29:59.939] $GPGGA,002959.30,3714.00580010,N,13701.48884736,E,2,09,1.0,101.012,M,36.772,M,1.2,0022*49
[2021-02-23 09:30:00.049] $GPGGA,002959.40,3714.00580704,N,13701.48883717,E,2,09,1.0,100.970,M,36.772,M,1.4,0022*42
[2021-02-23 09:30:00.143] $GPGGA,002959.50,3714.00580682,N,13701.48883755,E,2,09,1.0,100.963,M,36.772,M,1.4,0022*48
[2021-02-23 09:30:00.252] $GPGGA,002959.60,3714.00581385,N,13701.48882992,E,2,09,1.0,100.924,M,36.772,M,1.6,0022*4D
[2021-02-23 09:30:00.346] $GPGGA,002959.70,3714.00581306,N,13701.48882976,E,2,09,1.0,100.922,M,36.772,M,1.6,0022*4B
[2021-02-23 09:30:00.455] $GPGGA,002959.80,3714.00582249,N,13701.48881903,E,2,09,1.0,100.882,M,36.772,M,0.8,0022*48
[2021-02-23 09:30:00.549] $GPGGA,002959.90,3714.00596173,N,13701.48870081,E,5,06,2.3,100.007,M,36.772,M,0.9,0022*47
[2021-02-23 09:30:00.658] $GPGGA,003000.00,3714.00596201,N,13701.48870107,E,5,06,2.3,100.001,M,36.772,M,1.0,0022*4D
[2021-02-23 09:30:00.752] $GPGGA,003000.10,3714.00596442,N,13701.48870022,E,5,06,2.3,99.999,M,36.772,M,1.1,0022*73
[2021-02-23 09:30:00.846] $GPGGA,003000.20,3714.00596452,N,13701.48869938,E,5,06,2.3,100.000,M,36.772,M,1.2,0022*40
[2021-02-23 09:30:00.939] $GPGGA,003000.30,3714.00596425,N,13701.48869828,E,5,06,2.3,99.998,M,36.772,M,1.3,0022*79
[2021-02-23 09:30:01.049] $GPGGA,003000.40,3714.00596626,N,13701.48869629,E,5,06,2.3,99.999,M,36.772,M,1.4,0022*76
[2021-02-23 09:30:01.142] $GPGGA,003000.50,3714.00596693,N,13701.48869661,E,5,06,2.3,100.000,M,36.772,M,1.5,0022*4C
[2021-02-23 09:30:01.252] $GPGGA,003000.60,3714.00596766,N,13701.48869438,E,5,06,2.3,99.993,M,36.772,M,1.6,0022*7B
[2021-02-23 09:30:01.346] $GPGGA,003000.70,3714.00596700,N,13701.48869360,E,5,06,2.3,100.002,M,36.772,M,1.7,0022*41
[2021-02-23 09:30:01.455] $GPGGA,003000.80,3714.00596256,N,13701.48869602,E,4,08,1.1,99.999,M,36.772,M,0.8,0022*73
[2021-02-23 09:30:01.549] $GPGGA,003000.90,3714.00596162,N,13701.48869048,E,4,08,1.1,100.011,M,36.772,M,0.9,0022*47
[2021-02-23 09:30:01.658] $GPGGA,003001.00,3714.00596280,N,13701.48869114,E,4,08,1.1,100.011,M,36.772,M,1.0,0022*40
[2021-02-23 09:30:01.752] $GPGGA,003001.10,3714.00596103,N,13701.48869130,E,4,08,1.1,100.009,M,36.772,M,1.1,0022*47
[2021-02-23 09:30:01.846] $GPGGA,003001.20,3714.00596515,N,13701.48869062,E,4,08,1.1,100.003,M,36.772,M,1.2,0022*48
[2021-02-23 09:30:01.939] $GPGGA,003001.30,3714.00596478,N,13701.48869110,E,4,08,1.1,100.007,M,36.772,M,1.3,0022*42
[2021-02-23 09:30:02.049] $GPGGA,003001.40,3714.00596590,N,13701.48869062,E,4,08,1.1,100.004,M,36.772,M,1.4,0022*42
[2021-02-23 09:30:02.142] $GPGGA,003001.50,3714.00596598,N,13701.48868770,E,4,08,1.1,100.006,M,36.772,M,1.5,0022*4D
[2021-02-23 09:30:02.252] $GPGGA,003001.60,3714.00596635,N,13701.48868893,E,4,08,1.1,100.002,M,36.772,M,1.6,0022*4F
[2021-02-23 09:30:02.346] $GPGGA,003001.70,3714.00596571,N,13701.48869109,E,4,08,1.1,100.005,M,36.772,M,1.7,0022*40
[2021-02-23 09:30:02.455] $GPGGA,003001.80,3714.00596930,N,13701.48869404,E,4,08,1.1,100.014,M,36.772,M,0.8,0022*40
[2021-02-23 09:30:02.549] $GPGGA,003001.90,3714.00596875,N,13701.48869366,E,4,08,1.1,100.016,M,36.772,M,0.9,0022*41
[2021-02-23 09:30:02.642] $GPGGA,003002.00,3714.00596750,N,13701.48869342,E,4,08,1.1,100.018,M,36.772,M,1.0,0022*43
[2021-02-23 09:30:02.721] $GPGGA,003002.10,3714.00597009,N,13701.48869531,E,4,08,1.1,100.010,M,36.772,M,1.1,0022*43
[2021-02-23 09:30:02.845] $GPGGA,003002.20,3714.00597090,N,13701.48869594,E,4,08,1.1,100.011,M,36.772,M,1.2,0022*4D
[2021-02-23 09:30:02.939] $GPGGA,003002.30,3714.00597035,N,13701.48869327,E,4,08,1.1,100.010,M,36.772,M,1.3,0022*4D
[2021-02-23 09:30:03.049] $GPGGA,003002.40,3714.00597122,N,13701.48869466,E,4,08,1.1,100.011,M,36.772,M,1.4,0022*49
[2021-02-23 09:30:03.142] $GPGGA,003002.50,3714.00597048,N,13701.48869438,E,4,08,1.1,100.012,M,36.772,M,1.5,0022*4C
[2021-02-23 09:30:03.252] $GPGGA,003002.60,3714.00597004,N,13701.48869535,E,4,08,1.1,100.012,M,36.772,M,1.6,0022*48
[2021-02-23 09:30:03.345] $GPGGA,003002.70,3714.00597134,N,13701.48869276,E,4,08,1.1,100.012,M,36.772,M,1.7,0022*4A
[2021-02-23 09:30:03.455] $GPGGA,003002.80,3714.00596953,N,13701.48869132,E,4,09,1.0,100.017,M,36.772,M,0.8,0022*45
[2021-02-23 09:30:03.549] $GPGGA,003002.90,3714.00597130,N,13701.48869193,E,4,09,1.0,100.007,M,36.772,M,0.9,0022*43
[2021-02-23 09:30:03.658] $GPGGA,003003.00,3714.00597061,N,13701.48868758,E,4,09,1.0,100.019,M,36.772,M,1.0,0022*49
[2021-02-23 09:30:03.752] $GPGGA,003003.10,3714.00597020,N,13701.48868786,E,4,09,1.0,100.020,M,36.772,M,1.1,0022*45
[2021-02-23 09:30:03.845] $GPGGA,003003.20,3714.00596984,N,13701.48868750,E,4,09,1.0,100.014,M,36.772,M,1.2,0022*4F
[2021-02-23 09:30:03.939] $GPGGA,003003.30,3714.00597056,N,13701.48868811,E,4,09,1.0,100.018,M,36.772,M,1.3,0022*4E
[2021-02-23 09:30:04.048] $GPGGA,003003.40,3714.00596970,N,13701.48868831,E,4,09,1.0,100.012,M,36.772,M,1.4,0022*4A
[2021-02-23 09:30:04.142] $GPGGA,003003.50,3714.00597132,N,13701.48868948,E,4,09,1.0,100.013,M,36.772,M,1.5,0022*4B
[2021-02-23 09:30:04.252] $GPGGA,003003.60,3714.00596944,N,13701.48868787,E,4,09,1.0,100.015,M,36.772,M,1.6,0022*48
[2021-02-23 09:30:04.345] $GPGGA,003003.70,3714.00597189,N,13701.48868885,E,4,09,1.0,100.017,M,36.772,M,1.7,0022*4F
[2021-02-23 09:30:04.455] $GPGGA,003003.80,3714.00597044,N,13701.48869103,E,4,09,1.0,100.008,M,36.772,M,0.8,0022*46
[2021-02-23 09:30:04.548] $GPGGA,003003.90,3714.00597034,N,13701.48869226,E,4,09,1.0,100.015,M,36.772,M,0.9,0022*49
[2021-02-23 09:30:04.658] $GPGGA,003004.00,3714.00596970,N,13701.48869190,E,4,09,1.0,100.013,M,36.772,M,1.0,0022*4F
[2021-02-23 09:30:04.752] $GPGGA,003004.10,3714.00597115,N,13701.48869267,E,4,09,1.0,100.001,M,36.772,M,1.1,0022*4D
[2021-02-23 09:30:04.845] $GPGGA,003004.20,3714.00597073,N,13701.48869509,E,4,09,1.0,100.009,M,36.772,M,1.2,0022*4B
[2021-02-23 09:30:04.939] $GPGGA,003004.30,3714.00597031,N,13701.48869453,E,4,09,1.0,100.010,M,36.772,M,1.3,0022*4B
[2021-02-23 09:30:05.048] $GPGGA,003004.40,3714.00596957,N,13701.48869681,E,4,09,1.0,100.006,M,36.772,M,1.4,0022*49
[2021-02-23 09:30:05.142] $GPGGA,003004.50,3714.00596886,N,13701.48869596,E,4,09,1.0,100.003,M,36.772,M,1.5,0022*44
[2021-02-23 09:30:05.252] $GPGGA,003004.60,3714.00597095,N,13701.48869726,E,4,09,1.0,100.004,M,36.772,M,1.6,0022*41
[2021-02-23 09:30:05.345] $GPGGA,003004.70,3714.00596976,N,13701.48869889,E,4,09,1.0,100.004,M,36.772,M,1.7,0022*4E
[2021-02-23 09:30:05.455] $GPGGA,003004.80,3714.00597035,N,13701.48869672,E,4,09,1.0,100.009,M,36.772,M,0.8,0022*47
[2021-02-23 09:30:05.548] $GPGGA,003004.90,3714.00597053,N,13701.48869884,E,4,09,1.0,100.003,M,36.772,M,0.9,0022*4A
[2021-02-23 09:30:05.658] $GPGGA,003005.00,3714.00596960,N,13701.48869810,E,4,09,1.0,100.012,M,36.772,M,1.0,0022*4F
[2021-02-23 09:30:05.751] $GPGGA,003005.10,3714.00597013,N,13701.48869781,E,4,09,1.0,100.008,M,36.772,M,1.1,0022*4F
[2021-02-23 09:30:05.845] $GPGGA,003005.20,3714.00596996,N,13701.48869903,E,4,09,1.0,100.009,M,36.772,M,1.2,0022*4F
[2021-02-23 09:30:05.939] $GPGGA,003005.30,3714.00597004,N,13701.48869951,E,4,09,1.0,100.009,M,36.772,M,1.3,0022*4B
[2021-02-23 09:30:06.048] $GPGGA,003005.40,3714.00596890,N,13701.48869857,E,4,09,1.0,100.004,M,36.772,M,1.4,0022*45
[2021-02-23 09:30:06.142] $GPGGA,003005.50,3714.00596921,N,13701.48870114,E,4,09,1.0,100.005,M,36.772,M,1.5,0022*49
[2021-02-23 09:30:06.252] $GPGGA,003005.60,3714.00596853,N,13701.48870194,E,4,09,1.0,100.003,M,36.772,M,1.6,0022*43
[2021-02-23 09:30:06.345] $GPGGA,003005.70,3714.00597044,N,13701.48870357,E,4,09,1.0,100.004,M,36.772,M,1.7,0022*46
[2021-02-23 09:30:06.455] $GPGGA,003005.80,3714.00596801,N,13701.48869976,E,4,09,1.0,100.004,M,36.772,M,0.8,0022*4E
[2021-02-23 09:30:06.548] $GPGGA,003005.90,3714.00596820,N,13701.48869812,E,4,09,1.0,100.002,M,36.772,M,0.9,0022*48
[2021-02-23 09:30:06.658] $GPGGA,003006.00,3714.00596840,N,13701.48869832,E,4,09,1.0,100.001,M,36.772,M,1.0,0022*4D
[2021-02-23 09:30:06.751] $GPGGA,003006.10,3714.00596876,N,13701.48869697,E,4,09,1.0,100.004,M,36.772,M,1.1,0022*4C
[2021-02-23 09:30:06.845] $GPGGA,003006.20,3714.00596912,N,13701.48869758,E,4,09,1.0,100.010,M,36.772,M,1.2,0022*48
[2021-02-23 09:30:06.939] $GPGGA,003006.30,3714.00596963,N,13701.48870020,E,4,09,1.0,99.999,M,36.772,M,1.3,0022*77
[2021-02-23 09:30:07.048] $GPGGA,003006.40,3714.00597265,N,13701.48870365,E,4,09,1.0,100.000,M,36.772,M,1.4,0022*41
[2021-02-23 09:30:07.142] $GPGGA,003006.50,3714.00597552,N,13701.48870258,E,4,09,1.0,100.002,M,36.772,M,1.5,0022*4F
[2021-02-23 09:30:07.251] $GPGGA,003006.60,3714.00597478,N,13701.48869942,E,4,09,1.0,100.001,M,36.772,M,1.6,0022*4D
[2021-02-23 09:30:07.345] $GPGGA,003006.70,3714.00597526,N,13701.48869896,E,4,09,1.0,99.999,M,36.772,M,1.7,0022*76
[2021-02-23 09:30:07.454] $GPGGA,003006.80,3714.00597319,N,13701.48869698,E,4,09,1.0,100.012,M,36.772,M,0.8,0022*46
[2021-02-23 09:30:07.548] $GPGGA,003006.90,3714.00597500,N,13701.48869819,E,4,09,1.0,100.007,M,36.772,M,0.9,0022*4B
[2021-02-23 09:30:07.658] $GPGGA,003007.00,3714.00597428,N,13701.48870168,E,4,09,1.0,100.009,M,36.772,M,1.0,0022*49
[2021-02-23 09:30:07.751] $GPGGA,003007.10,3714.00597457,N,13701.48870595,E,4,09,1.0,100.009,M,36.772,M,1.1,0022*47
[2021-02-23 09:30:07.845] $GPGGA,003007.20,3714.00597092,N,13701.48870514,E,4,09,1.0,100.010,M,36.772,M,1.2,0022*4B
[2021-02-23 09:30:07.939] $GPGGA,003007.30,3714.00596626,N,13701.48870442,E,4,09,1.0,100.008,M,36.772,M,1.3,0022*48
[2021-02-23 09:30:08.048] $GPGGA,003007.40,3714.00596811,N,13701.48869993,E,4,09,1.0,100.005,M,36.772,M,1.4,0022*46
[2021-02-23 09:30:08.142] $GPGGA,003007.50,3714.00596838,N,13701.48869576,E,4,09,1.0,100.007,M,36.772,M,1.5,0022*48
[2021-02-23 09:30:08.251] $GPGGA,003007.60,3714.00596736,N,13701.48869394,E,4,09,1.0,100.001,M,36.772,M,1.6,0022*45
[2021-02-23 09:30:08.345] $GPGGA,003007.70,3714.00596535,N,13701.48869425,E,4,09,1.0,100.007,M,36.772,M,1.7,0022*4F
[2021-02-23 09:30:08.454] $GPGGA,003007.80,3714.00596448,N,13701.48868995,E,4,09,1.0,100.013,M,36.772,M,0.8,0022*47
[2021-02-23 09:30:08.548] $GPGGA,003007.90,3714.00596471,N,13701.48868003,E,4,09,1.0,100.012,M,36.772,M,0.9,0022*4A
[2021-02-23 09:30:08.658] $GPGGA,003008.00,3714.00596283,N,13701.48867491,E,4,09,1.0,100.015,M,36.772,M,1.0,0022*48
[2021-02-23 09:30:08.751] $GPGGA,003008.10,3714.00596063,N,13701.48867240,E,4,09,1.0,100.014,M,36.772,M,1.1,0022*4F
[2021-02-23 09:30:08.861] $GPGGA,003008.20,3714.00595782,N,13701.48867197,E,4,09,1.0,100.018,M,36.772,M,1.2,0022*41
[2021-02-23 09:30:08.939] $GPGGA,003008.30,3714.00595833,N,13701.48867289,E,4,09,1.0,100.011,M,36.772,M,1.3,0022*41
[2021-02-23 09:30:09.048] $GPGGA,003008.40,3714.00595908,N,13701.48867119,E,4,09,1.0,100.013,M,36.772,M,1.4,0022*40
[2021-02-23 09:30:09.142] $GPGGA,003008.50,3714.00596268,N,13701.48867036,E,4,09,1.0,100.015,M,36.772,M,1.5,0022*44
[2021-02-23 09:30:09.251] $GPGGA,003008.60,3714.00596252,N,13701.48866594,E,4,09,1.0,100.011,M,36.772,M,1.6,0022*45
[2021-02-23 09:30:09.345] $GPGGA,003008.70,3714.00596520,N,13701.48866160,E,4,09,1.0,100.015,M,36.772,M,1.7,0022*4C
[2021-02-23 09:30:09.454] $GPGGA,003008.80,3714.00597026,N,13701.48864674,E,4,09,1.0,100.005,M,36.772,M,0.8,0022*4E
[2021-02-23 09:30:09.548] $GPGGA,003008.90,3714.00597722,N,13701.48863391,E,4,09,1.0,100.004,M,36.772,M,0.9,0022*45
[2021-02-23 09:30:09.657] $GPGGA,003009.00,3714.00598741,N,13701.48861497,E,4,09,1.0,100.005,M,36.772,M,1.0,0022*4D
[2021-02-23 09:30:09.751] $GPGGA,003009.10,3714.00599876,N,13701.48859743,E,4,09,1.0,100.026,M,36.772,M,1.1,0022*47
[2021-02-23 09:30:09.845] $GPGGA,003009.20,3714.00600685,N,13701.48857716,E,4,09,1.0,100.055,M,36.772,M,1.2,0022*4C
[2021-02-23 09:30:09.939] $GPGGA,003009.30,3714.00600506,N,13701.48856148,E,4,09,1.0,100.098,M,36.772,M,1.3,0022*49
[2021-02-23 09:30:10.048] $GPGGA,003009.40,3714.00600444,N,13701.48854569,E,4,09,1.0,100.132,M,36.772,M,1.4,0022*4A
[2021-02-23 09:30:10.142] $GPGGA,003009.50,3714.00600441,N,13701.48853250,E,4,09,1.0,100.147,M,36.772,M,1.5,0022*47
[2021-02-23 09:30:10.251] $GPGGA,003009.60,3714.00600342,N,13701.48852011,E,4,09,1.0,100.146,M,36.772,M,1.6,0022*44
[2021-02-23 09:30:10.345] $GPGGA,003009.70,3714.00600740,N,13701.48850100,E,4,09,1.0,100.148,M,36.772,M,1.7,0022*4F
[2021-02-23 09:30:10.454] $GPGGA,003009.80,3714.00601510,N,13701.48848518,E,4,09,1.0,100.144,M,36.772,M,0.8,0022*40
[2021-02-23 09:30:10.548] $GPGGA,003009.90,3714.00602885,N,13701.48846988,E,4,09,1.0,100.153,M,36.772,M,0.9,0022*4F
[2021-02-23 09:30:10.657] $GPGGA,003010.00,3714.00605197,N,13701.48846059,E,4,09,1.0,100.158,M,36.772,M,1.0,0022*45
[2021-02-23 09:30:10.751] $GPGGA,003010.10,3714.00607299,N,13701.48844986,E,4,09,1.0,100.163,M,36.772,M,1.1,0022*4B
[2021-02-23 09:30:10.861] $GPGGA,003010.20,3714.00609390,N,13701.48844119,E,4,09,1.0,100.181,M,36.772,M,1.2,0022*4F
[2021-02-23 09:30:10.939] $GPGGA,003010.30,3714.00610948,N,13701.48844184,E,4,09,1.0,100.182,M,36.772,M,1.3,0022*4F
[2021-02-23 09:30:11.048] $GPGGA,003010.40,3714.00612475,N,13701.48844461,E,4,09,1.0,100.193,M,36.772,M,1.4,0022*40
[2021-02-23 09:30:11.142] $GPGGA,003010.50,3714.00614284,N,13701.48843992,E,4,09,1.0,100.187,M,36.772,M,1.5,0022*4D
[2021-02-23 09:30:11.251] $GPGGA,003010.60,3714.00616890,N,13701.48843173,E,4,09,1.0,100.192,M,36.772,M,1.6,0022*43
[2021-02-23 09:30:11.345] $GPGGA,003010.70,3714.00619203,N,13701.48842220,E,4,09,1.0,100.196,M,36.772,M,1.7,0022*4C
[2021-02-23 09:30:11.454] $GPGGA,003010.80,3714.00621653,N,13701.48841639,E,4,09,1.0,100.193,M,36.772,M,0.8,0022*4D
[2021-02-23 09:30:11.548] $GPGGA,003010.90,3714.00623836,N,13701.48841071,E,4,09,1.0,100.190,M,36.772,M,0.9,0022*4B
[2021-02-23 09:30:11.657] $GPGGA,003011.00,3714.00624889,N,13701.48840140,E,4,09,1.0,100.204,M,36.772,M,1.0,0022*44
[2021-02-23 09:30:11.751] $GPGGA,003011.10,3714.00626300,N,13701.48839377,E,4,09,1.0,100.200,M,36.772,M,1.1,0022*40
[2021-02-23 09:30:11.845] $GPGGA,003011.20,3714.00627123,N,13701.48838774,E,4,09,1.0,100.196,M,36.772,M,1.2,0022*48
[2021-02-23 09:30:11.939] $GPGGA,003011.30,3714.00627881,N,13701.48837623,E,4,09,1.0,100.197,M,36.772,M,1.3,0022*44
[2021-02-23 09:30:12.048] $GPGGA,003011.40,3714.00628111,N,13701.48836559,E,4,09,1.0,100.205,M,36.772,M,1.4,0022*4C
[2021-02-23 09:30:12.142] $GPGGA,003011.50,3714.00628582,N,13701.48836052,E,4,09,1.0,100.203,M,36.772,M,1.5,0022*4A
[2021-02-23 09:30:12.251] $GPGGA,003011.60,3714.00628816,N,13701.48835264,E,4,09,1.0,100.190,M,36.772,M,1.6,0022*47
[2021-02-23 09:30:12.345] $GPGGA,003011.70,3714.00628439,N,13701.48834361,E,4,09,1.0,100.199,M,36.772,M,1.7,0022*4A
[2021-02-23 09:30:12.454] $GPGGA,003011.80,3714.00627582,N,13701.48833148,E,4,09,1.0,100.203,M,36.772,M,1.8,0022*4A
[2021-02-23 09:30:12.548] $GPGGA,003011.90,3714.00627162,N,13701.48832078,E,4,09,1.0,100.198,M,36.772,M,1.9,0022*42
[2021-02-23 09:30:12.642] $GPGGA,003012.00,3714.00627813,N,13701.48832272,E,4,09,1.0,100.181,M,36.772,M,2.0,0022*4D
[2021-02-23 09:30:12.720] $GPGGA,003012.10,3714.00628881,N,13701.48831882,E,4,08,1.1,100.180,M,36.772,M,1.1,0022*4D
[2021-02-23 09:30:12.845] $GPGGA,003012.20,3714.00630553,N,13701.48830921,E,4,08,1.1,100.190,M,36.772,M,1.2,0022*4E
[2021-02-23 09:30:12.938] $GPGGA,003012.30,3714.00633380,N,13701.48832573,E,4,08,1.1,100.173,M,36.772,M,1.3,0022*41
[2021-02-23 09:30:13.048] $GPGGA,003012.40,3714.00635855,N,13701.48832566,E,4,08,1.1,100.189,M,36.772,M,1.4,0022*45
[2021-02-23 09:30:13.142] $GPGGA,003012.50,3714.00638965,N,13701.48832989,E,4,08,1.1,100.193,M,36.772,M,1.5,0022*4C
[2021-02-23 09:30:13.251] $GPGGA,003012.60,3714.00642637,N,13701.48834557,E,4,08,1.1,100.189,M,36.772,M,1.6,0022*4B
[2021-02-23 09:30:13.345] $GPGGA,003012.70,3714.00645828,N,13701.48835863,E,4,08,1.1,100.188,M,36.772,M,1.7,0022*46
[2021-02-23 09:30:13.454] $GPGGA,003012.80,3714.00648600,N,13701.48836153,E,4,08,1.1,100.186,M,36.772,M,1.8,0022*48
[2021-02-23 09:30:13.548] $GPGGA,003012.90,3714.00650683,N,13701.48836541,E,4,08,1.1,100.206,M,36.772,M,0.9,0022*47
[2021-02-23 09:30:13.657] $GPGGA,003013.00,3714.00653276,N,13701.48836728,E,4,08,1.1,100.209,M,36.772,M,1.0,0022*48
[2021-02-23 09:30:13.751] $GPGGA,003013.10,3714.00654916,N,13701.48837105,E,4,08,1.1,100.191,M,36.772,M,1.1,0022*48
[2021-02-23 09:30:13.845] $GPGGA,003013.20,3714.00656271,N,13701.48837052,E,4,08,1.1,100.193,M,36.772,M,1.2,0022*41
[2021-02-23 09:30:13.938] $GPGGA,003013.30,3714.00656168,N,13701.48836724,E,4,08,1.1,100.195,M,36.772,M,1.3,0022*4B
[2021-02-23 09:30:14.048] $GPGGA,003013.40,3714.00655206,N,13701.48836212,E,4,08,1.1,100.205,M,36.772,M,1.4,0022*49
[2021-02-23 09:30:14.142] $GPGGA,003013.50,3714.00652808,N,13701.48835275,E,4,08,1.1,100.212,M,36.772,M,1.5,0022*4E
[2021-02-23 09:30:14.251] $GPGGA,003013.60,3714.00649945,N,13701.48833790,E,4,08,1.1,100.212,M,36.772,M,1.6,0022*44
[2021-02-23 09:30:14.345] $GPGGA,003013.70,3714.00647110,N,13701.48831916,E,4,08,1.1,100.224,M,36.772,M,1.7,0022*45
[2021-02-23 09:30:14.454] $GPGGA,003013.80,3714.00644137,N,13701.48829254,E,4,08,1.1,100.194,M,36.772,M,1.8,0022*4F
[2021-02-23 09:30:14.548] $GPGGA,003013.90,3714.00641403,N,13701.48827759,E,4,08,1.1,100.196,M,36.772,M,1.9,0022*4C
[2021-02-23 09:30:14.657] $GPGGA,003014.00,3714.00638570,N,13701.48827164,E,4,08,1.1,100.204,M,36.772,M,2.0,0022*43
[2021-02-23 09:30:14.751] $GPGGA,003014.10,3714.00636466,N,13701.48827815,E,4,08,1.1,100.199,M,36.772,M,2.1,0022*43
[2021-02-23 09:30:14.845] $GPGGA,003014.20,3714.00634742,N,13701.48828521,E,4,08,1.1,100.197,M,36.772,M,2.2,0022*4F
[2021-02-23 09:30:14.938] $GPGGA,003014.30,3714.00633900,N,13701.48829453,E,4,08,1.1,100.201,M,36.772,M,2.3,0022*49
[2021-02-23 09:30:15.048] $GPGGA,003014.40,3714.00634102,N,13701.48829548,E,4,08,1.1,100.209,M,36.772,M,2.4,0022*47
[2021-02-23 09:30:15.141] $GPGGA,003014.50,3714.00635107,N,13701.48830222,E,4,08,1.1,100.204,M,36.772,M,2.5,0022*4D
[2021-02-23 09:30:15.251] $GPGGA,003014.60,3714.00636251,N,13701.48830307,E,4,08,1.1,100.206,M,36.772,M,2.6,0022*4A
[2021-02-23 09:30:15.345] $GPGGA,003014.70,3714.00637222,N,13701.48829858,E,4,08,1.1,100.214,M,36.772,M,2.7,0022*45
[2021-02-23 09:30:15.454] $GPGGA,003014.80,3714.00638962,N,13701.48829833,E,4,08,1.1,100.204,M,36.772,M,2.8,0022*49
[2021-02-23 09:30:15.548] $GPGGA,003014.90,3714.00640389,N,13701.48828938,E,4,08,1.1,100.207,M,36.772,M,2.9,0022*41
[2021-02-23 09:30:15.657] $GPGGA,003015.00,3714.00641812,N,13701.48828175,E,4,08,1.1,100.204,M,36.772,M,3.0,0022*4B
[2021-02-23 09:30:15.751] $GPGGA,003015.10,3714.00643497,N,13701.48827478,E,4,08,1.1,100.198,M,36.772,M,3.1,0022*49
[2021-02-23 09:30:15.845] $GPGGA,003015.20,3714.00645207,N,13701.48826916,E,4,08,1.1,100.192,M,36.772,M,3.2,0022*4E
[2021-02-23 09:30:15.938] $GPGGA,003015.30,3714.00646637,N,13701.48827094,E,4,08,1.1,100.194,M,36.772,M,3.3,0022*4E
[2021-02-23 09:30:16.048] $GPGGA,003015.40,3714.00647325,N,13701.48827963,E,4,08,1.1,100.185,M,36.772,M,3.4,0022*48
[2021-02-23 09:30:16.141] $GPGGA,003015.50,3714.00646860,N,13701.48829161,E,4,08,1.1,100.185,M,36.772,M,3.5,0022*47
[2021-02-23 09:30:16.251] $GPGGA,003015.60,3714.00646365,N,13701.48830137,E,4,08,1.1,100.188,M,36.772,M,3.6,0022*4F
[2021-02-23 09:30:16.345] $GPGGA,003015.70,3714.00645898,N,13701.48830989,E,4,08,1.1,100.197,M,36.772,M,3.7,0022*46
[2021-02-23 09:30:16.454] $GPGGA,003015.80,3714.00645607,N,13701.48831368,E,4,08,1.1,100.203,M,36.772,M,3.8,0022*44
[2021-02-23 09:30:16.548] $GPGGA,003015.90,3714.00644796,N,13701.48831397,E,4,08,1.1,100.203,M,36.772,M,3.9,0022*4C
[2021-02-23 09:30:16.657] $GPGGA,003016.00,3714.00643833,N,13701.48832040,E,4,08,1.1,100.194,M,36.772,M,4.0,0022*48
[2021-02-23 09:30:16.751] $GPGGA,003016.10,3714.00643312,N,13701.48831776,E,4,08,1.1,100.192,M,36.772,M,4.1,0022*47
[2021-02-23 09:30:16.844] $GPGGA,003016.20,3714.00642565,N,13701.48830995,E,4,08,1.1,100.192,M,36.772,M,4.2,0022*42
[2021-02-23 09:30:16.938] $GPGGA,003016.30,3714.00641976,N,13701.48829512,E,4,08,1.1,100.184,M,36.772,M,4.3,0022*43
[2021-02-23 09:30:17.048] $GPGGA,003016.40,3714.00641466,N,13701.48827615,E,4,08,1.1,100.187,M,36.772,M,4.4,0022*46
[2021-02-23 09:30:17.141] $GPGGA,003016.50,3714.00640998,N,13701.48825754,E,4,08,1.1,100.184,M,36.772,M,4.5,0022*4E
[2021-02-23 09:30:17.251] $GPGGA,003016.60,3714.00640542,N,13701.48825034,E,4,08,1.1,100.172,M,36.772,M,4.6,0022*4D
[2021-02-23 09:30:17.344] $GPGGA,003016.70,3714.00639505,N,13701.48824721,E,4,08,1.1,100.164,M,36.772,M,4.7,0022*45
[2021-02-23 09:30:17.454] $GPGGA,003016.80,3714.00638679,N,13701.48824983,E,4,08,1.1,100.170,M,36.772,M,4.8,0022*4F
[2021-02-23 09:30:17.548] $GPGGA,003016.90,3714.00638437,N,13701.48826050,E,4,08,1.1,100.173,M,36.772,M,4.9,0022*41
[2021-02-23 09:30:17.657] $GPGGA,003017.00,3714.00637962,N,13701.48827065,E,4,08,1.1,100.183,M,36.772,M,5.0,0022*4B
[2021-02-23 09:30:17.751] $GPGGA,003017.10,3714.00637459,N,13701.48827601,E,4,08,1.1,100.173,M,36.772,M,5.1,0022*45
[2021-02-23 09:30:17.844] $GPGGA,003017.20,3714.00637016,N,13701.48827459,E,4,08,1.1,100.180,M,36.772,M,5.2,0022*49
[2021-02-23 09:30:17.938] $GPGGA,003017.30,3714.00636973,N,13701.48827397,E,4,08,1.1,100.181,M,36.772,M,5.3,0022*46
[2021-02-23 09:30:18.048] $GPGGA,003017.40,3714.00636793,N,13701.48827115,E,4,08,1.1,100.181,M,36.772,M,5.4,0022*4E
[2021-02-23 09:30:18.141] $GPGGA,003017.50,3714.00636691,N,13701.48826338,E,4,08,1.1,100.166,M,36.772,M,5.5,0022*48
[2021-02-23 09:30:18.251] $GPGGA,003017.60,3714.00636349,N,13701.48825025,E,4,08,1.1,100.162,M,36.772,M,5.6,0022*40
[2021-02-23 09:30:18.344] $GPGGA,003017.70,3714.00635710,N,13701.48823950,E,4,08,1.1,100.160,M,36.772,M,5.7,0022*44
[2021-02-23 09:30:18.454] $GPGGA,003017.80,3714.00635580,N,13701.48823469,E,4,08,1.1,100.143,M,36.772,M,5.8,0022*49
[2021-02-23 09:30:18.548] $GPGGA,003017.90,3714.00634838,N,13701.48823486,E,4,08,1.1,100.135,M,36.772,M,5.9,0022*46
[2021-02-23 09:30:18.657] $GPGGA,003018.00,3714.00634124,N,13701.48823976,E,4,08,1.1,100.122,M,36.772,M,6.0,0022*4A
[2021-02-23 09:30:18.751] $GPGGA,003018.10,3714.00632708,N,13701.48823607,E,4,08,1.1,100.111,M,36.772,M,6.1,0022*4D
[2021-02-23 09:30:18.844] $GPGGA,003018.20,3714.00631125,N,13701.48822642,E,4,08,1.1,100.102,M,36.772,M,6.2,0022*45
[2021-02-23 09:30:18.938] $GPGGA,003018.30,3714.00630036,N,13701.48821578,E,4,08,1.1,100.085,M,36.772,M,6.3,0022*40
[2021-02-23 09:30:19.047] $GPGGA,003018.40,3714.00629715,N,13701.48820231,E,4,08,1.1,100.063,M,36.772,M,6.4,0022*4D
[2021-02-23 09:30:19.141] $GPGGA,003018.50,3714.00629577,N,13701.48819052,E,4,08,1.1,100.047,M,36.772,M,6.5,0022*40
[2021-02-23 09:30:19.251] $GPGGA,003018.60,3714.00630026,N,13701.48818399,E,4,08,1.1,100.038,M,36.772,M,6.6,0022*44
[2021-02-23 09:30:19.344] $GPGGA,003018.70,3714.00630913,N,13701.48818413,E,4,08,1.1,100.044,M,36.772,M,6.7,0022*45
[2021-02-23 09:30:19.454] $GPGGA,003018.80,3714.00631795,N,13701.48819000,E,4,08,1.1,100.057,M,36.772,M,6.8,0022*41
[2021-02-23 09:30:19.547] $GPGGA,003018.90,3714.00632313,N,13701.48820314,E,4,08,1.1,100.076,M,36.772,M,6.9,0022*47
[2021-02-23 09:30:19.657] $GPGGA,003019.00,3714.00632659,N,13701.48821409,E,4,08,1.1,100.093,M,36.772,M,7.0,0022*4D
[2021-02-23 09:30:19.751] $GPGGA,003019.10,3714.00632841,N,13701.48822728,E,4,08,1.1,100.095,M,36.772,M,7.1,0022*4F
[2021-02-23 09:30:19.844] $GPGGA,003019.20,3714.00633223,N,13701.48823798,E,4,08,1.1,100.098,M,36.772,M,7.2,0022*47
[2021-02-23 09:30:19.938] $GPGGA,003019.30,3714.00633444,N,13701.48824532,E,4,08,1.1,100.108,M,36.772,M,7.3,0022*4D
[2021-02-23 09:30:20.047] $GPGGA,003019.40,3714.00633360,N,13701.48824907,E,4,08,1.1,100.113,M,36.772,M,7.4,0022*4C
[2021-02-23 09:30:20.141] $GPGGA,003019.50,3714.00633363,N,13701.48825967,E,4,08,1.1,100.117,M,36.772,M,7.5,0022*4C
[2021-02-23 09:30:20.251] $GPGGA,003019.60,3714.00633699,N,13701.48826821,E,4,08,1.1,100.115,M,36.772,M,7.6,0022*4E
[2021-02-23 09:30:20.344] $GPGGA,003019.70,3714.00634156,N,13701.48827554,E,4,08,1.1,100.122,M,36.772,M,7.7,0022*47
[2021-02-23 09:30:20.454] $GPGGA,003019.80,3714.00634863,N,13701.48828813,E,4,08,1.1,100.121,M,36.772,M,7.8,0022*4A
[2021-02-23 09:30:20.547] $GPGGA,003019.90,3714.00635661,N,13701.48829430,E,4,08,1.1,100.123,M,36.772,M,7.9,0022*49
[2021-02-23 09:30:20.657] $GPGGA,003020.00,3714.00635891,N,13701.48830441,E,4,08,1.1,100.120,M,36.772,M,8.0,0022*40
[2021-02-23 09:30:20.750] $GPGGA,003020.10,3714.00636188,N,13701.48831903,E,4,08,1.1,100.116,M,36.772,M,8.1,0022*4D
[2021-02-23 09:30:20.844] $GPGGA,003020.20,3714.00636297,N,13701.48832903,E,4,08,1.1,100.124,M,36.772,M,8.2,0022*42
[2021-02-23 09:30:20.938] $GPGGA,003020.30,3714.00636289,N,13701.48833987,E,4,08,1.1,100.123,M,36.772,M,8.3,0022*47
[2021-02-23 09:30:21.047] $GPGGA,003020.40,3714.00636255,N,13701.48834245,E,4,08,1.1,100.123,M,36.772,M,8.4,0022*44
[2021-02-23 09:30:21.141] $GPGGA,003020.50,3714.00635460,N,13701.48834369,E,4,08,1.1,100.119,M,36.772,M,8.5,0022*41
[2021-02-23 09:30:21.250] $GPGGA,003020.60,3714.00634782,N,13701.48834615,E,4,08,1.1,100.119,M,36.772,M,8.6,0022*41
[2021-02-23 09:30:21.344] $GPGGA,003020.70,3714.00633918,N,13701.48834128,E,4,08,1.1,100.122,M,36.772,M,8.7,0022*4A
[2021-02-23 09:30:21.454] $GPGGA,003020.80,3714.00632975,N,13701.48833187,E,4,08,1.1,100.115,M,36.772,M,8.8,0022*46
[2021-02-23 09:30:21.547] $GPGGA,003020.90,3714.00632052,N,13701.48833122,E,4,08,1.1,100.112,M,36.772,M,8.9,0022*42
[2021-02-23 09:30:21.657] $GPGGA,003021.00,3714.00631516,N,13701.48832658,E,4,08,1.1,100.107,M,36.772,M,9.0,0022*4B
[2021-02-23 09:30:21.750] $GPGGA,003021.10,3714.00631023,N,13701.48831800,E,4,08,1.1,100.096,M,36.772,M,9.1,0022*41
[2021-02-23 09:30:21.844] $GPGGA,003021.20,3714.00631158,N,13701.48831654,E,4,08,1.1,100.099,M,36.772,M,9.2,0022*4C
[2021-02-23 09:30:21.938] $GPGGA,003021.30,3714.00631825,N,13701.48831483,E,4,08,1.1,100.089,M,36.772,M,9.3,0022*46
[2021-02-23 09:30:22.047] $GPGGA,003021.40,3714.00632680,N,13701.48831510,E,4,08,1.1,100.097,M,36.772,M,9.4,0022*40
[2021-02-23 09:30:22.125] $GPGGA,003021.50,3714.00633022,N,13701.48831282,E,4,09,1.0,100.091,M,36.772,M,8.5,0022*44
[2021-02-23 09:30:22.250] $GPGGA,003021.60,3714.00633397,N,13701.48832164,E,4,09,1.0,100.101,M,36.772,M,8.6,0022*49
[2021-02-23 09:30:22.344] $GPGGA,003021.70,3714.00633635,N,13701.48832774,E,4,09,1.0,100.113,M,36.772,M,5.7,0022*4D
[2021-02-23 09:30:22.454] $GPGGA,003021.80,3714.00634128,N,13701.48833530,E,4,09,1.0,100.124,M,36.772,M,0.8,0022*43
[2021-02-23 09:30:22.547] $GPGGA,003021.90,3714.00634301,N,13701.48834947,E,4,09,1.0,100.128,M,36.772,M,0.9,0022*4D
[2021-02-23 09:30:22.641] $GPGGA,003022.00,3714.00633836,N,13701.48836338,E,4,09,1.0,100.133,M,36.772,M,1.0,0022*4D
[2021-02-23 09:30:22.750] $GPGGA,003022.10,3714.00633226,N,13701.48838202,E,4,09,1.0,100.128,M,36.772,M,1.1,0022*4A
[2021-02-23 09:30:22.844] $GPGGA,003022.20,3714.00632428,N,13701.48839338,E,4,09,1.0,100.141,M,36.772,M,1.2,0022*45
[2021-02-23 09:30:22.938] $GPGGA,003022.30,3714.00631860,N,13701.48841245,E,4,09,1.0,100.136,M,36.772,M,1.3,0022*42
[2021-02-23 09:30:23.047] $GPGGA,003022.40,3714.00630832,N,13701.48842568,E,4,09,1.0,100.141,M,36.772,M,1.4,0022*4F
[2021-02-23 09:30:23.141] $GPGGA,003022.50,3714.00629170,N,13701.48844282,E,4,09,1.0,100.135,M,36.772,M,1.5,0022*4E
[2021-02-23 09:30:23.250] $GPGGA,003022.60,3714.00626973,N,13701.48846610,E,4,09,1.0,100.127,M,36.772,M,1.6,0022*44
[2021-02-23 09:30:23.344] $GPGGA,003022.70,3714.00625176,N,13701.48848519,E,4,09,1.0,100.102,M,36.772,M,1.7,0022*49
[2021-02-23 09:30:23.453] $GPGGA,003022.80,3714.00623661,N,13701.48850657,E,4,09,1.0,100.081,M,36.772,M,0.8,0022*45
[2021-02-23 09:30:23.547] $GPGGA,003022.90,3714.00622444,N,13701.48851996,E,4,09,1.0,100.075,M,36.772,M,0.9,0022*49
[2021-02-23 09:30:23.657] $GPGGA,003023.00,3714.00622139,N,13701.48853114,E,4,09,1.0,100.073,M,36.772,M,1.0,0022*40
[2021-02-23 09:30:23.750] $GPGGA,003023.10,3714.00622337,N,13701.48852741,E,4,09,1.0,100.070,M,36.772,M,1.1,0022*48
[2021-02-23 09:30:23.844] $GPGGA,003023.20,3714.00623326,N,13701.48850608,E,4,09,1.0,100.096,M,36.772,M,1.2,0022*4F
[2021-02-23 09:30:23.938] $GPGGA,003023.30,3714.00625052,N,13701.48848239,E,4,09,1.0,100.104,M,36.772,M,1.3,0022*4C
[2021-02-23 09:30:24.047] $GPGGA,003023.40,3714.00627697,N,13701.48846178,E,4,09,1.0,100.115,M,36.772,M,1.4,0022*49
[2021-02-23 09:30:24.141] $GPGGA,003023.50,3714.00630049,N,13701.48844184,E,4,09,1.0,100.122,M,36.772,M,1.5,0022*4F
[2021-02-23 09:30:24.250] $GPGGA,003023.60,3714.00631578,N,13701.48841856,E,4,09,1.0,100.127,M,36.772,M,1.6,0022*4F
[2021-02-23 09:30:24.344] $GPGGA,003023.70,3714.00632042,N,13701.48837936,E,4,09,1.0,100.126,M,36.772,M,1.7,0022*47
[2021-02-23 09:30:24.453] $GPGGA,003023.80,3714.00632753,N,13701.48834669,E,4,09,1.0,100.140,M,36.772,M,1.8,0022*46
[2021-02-23 09:30:24.547] $GPGGA,003023.90,3714.00633456,N,13701.48832838,E,4,09,1.0,100.142,M,36.772,M,1.9,0022*4F
[2021-02-23 09:30:24.656] $GPGGA,003024.00,3714.00632964,N,13701.48831173,E,4,09,1.0,100.151,M,36.772,M,1.0,0022*42
[2021-02-23 09:30:24.750] $GPGGA,003024.10,3714.00632076,N,13701.48830458,E,4,09,1.0,100.151,M,36.772,M,1.1,0022*45
[2021-02-23 09:30:24.844] $GPGGA,003024.20,3714.00630734,N,13701.48829869,E,4,09,1.0,100.171,M,36.772,M,1.2,0022*42
[2021-02-23 09:30:24.938] $GPGGA,003024.30,3714.00628531,N,13701.48829844,E,4,09,1.0,100.190,M,36.772,M,1.3,0022*4C
[2021-02-23 09:30:25.047] $GPGGA,003024.40,3714.00625571,N,13701.48830382,E,4,09,1.0,100.190,M,36.772,M,1.4,0022*4C
[2021-02-23 09:30:25.141] $GPGGA,003024.50,3714.00622322,N,13701.48832145,E,4,09,1.0,100.196,M,36.772,M,1.5,0022*46
[2021-02-23 09:30:25.250] $GPGGA,003024.60,3714.00618837,N,13701.48834971,E,4,09,1.0,100.200,M,36.772,M,1.6,0022*45
[2021-02-23 09:30:25.344] $GPGGA,003024.70,3714.00615713,N,13701.48837837,E,4,09,1.0,100.193,M,36.772,M,1.7,0022*48
[2021-02-23 09:30:25.453] $GPGGA,003024.80,3714.00612392,N,13701.48839280,E,4,09,1.0,100.187,M,36.772,M,1.8,0022*4F
[2021-02-23 09:30:25.547] $GPGGA,003024.90,3714.00610021,N,13701.48840444,E,4,09,1.0,100.200,M,36.772,M,1.9,0022*4A
[2021-02-23 09:30:25.656] $GPGGA,003025.00,3714.00607552,N,13701.48841176,E,4,09,1.0,100.231,M,36.772,M,2.0,0022*48
[2021-02-23 09:30:25.750] $GPGGA,003025.10,3714.00604509,N,13701.48841665,E,4,09,1.0,100.221,M,36.772,M,2.1,0022*41
[2021-02-23 09:30:25.844] $GPGGA,003025.20,3714.00601534,N,13701.48841691,E,4,09,1.0,100.212,M,36.772,M,2.2,0022*41
[2021-02-23 09:30:25.938] $GPGGA,003025.30,3714.00597096,N,13701.48842180,E,4,09,1.0,100.186,M,36.772,M,2.3,0022*4A
[2021-02-23 09:30:26.047] $GPGGA,003025.40,3714.00592246,N,13701.48841795,E,4,09,1.0,100.169,M,36.772,M,2.4,0022*40
[2021-02-23 09:30:26.141] $GPGGA,003025.50,3714.00586934,N,13701.48841081,E,4,09,1.0,100.162,M,36.772,M,2.5,0022*42
[2021-02-23 09:30:26.250] $GPGGA,003025.60,3714.00581229,N,13701.48840216,E,4,09,1.0,100.174,M,36.772,M,2.6,0022*48
[2021-02-23 09:30:26.344] $GPGGA,003025.70,3714.00575744,N,13701.48840284,E,4,09,1.0,100.155,M,36.772,M,2.7,0022*45
[2021-02-23 09:30:26.453] $GPGGA,003025.80,3714.00570985,N,13701.48840079,E,4,09,1.0,100.181,M,36.772,M,2.8,0022*4A
[2021-02-23 09:30:26.547] $GPGGA,003025.90,3714.00568267,N,13701.48840201,E,4,09,1.0,100.155,M,36.772,M,2.9,0022*40
[2021-02-23 09:30:26.656] $GPGGA,003026.00,3714.00564437,N,13701.48840801,E,4,09,1.0,100.158,M,36.772,M,3.0,0022*4A
[2021-02-23 09:30:26.750] $GPGGA,003026.10,3714.00562008,N,13701.48841401,E,4,09,1.0,100.149,M,36.772,M,3.1,0022*49
[2021-02-23 09:30:26.844] $GPGGA,003026.20,3714.00559919,N,13701.48841527,E,4,09,1.0,100.158,M,36.772,M,3.2,0022*4D
[2021-02-23 09:30:26.938] $GPGGA,003026.30,3714.00557606,N,13701.48841918,E,4,09,1.0,100.141,M,36.772,M,3.3,0022*4A
[2021-02-23 09:30:27.047] $GPGGA,003026.40,3714.00554792,N,13701.48841650,E,4,09,1.0,100.149,M,36.772,M,3.4,0022*4E
[2021-02-23 09:30:27.141] $GPGGA,003026.50,3714.00550886,N,13701.48842127,E,4,09,1.0,100.132,M,36.772,M,3.5,0022*48
[2021-02-23 09:30:27.250] $GPGGA,003026.60,3714.00547065,N,13701.48843413,E,4,09,1.0,100.123,M,36.772,M,3.6,0022*48
[2021-02-23 09:30:27.344] $GPGGA,003026.70,3714.00542598,N,13701.48844598,E,4,09,1.0,100.102,M,36.772,M,3.7,0022*4C
[2021-02-23 09:30:27.453] $GPGGA,003026.80,3714.00539111,N,13701.48846442,E,4,09,1.0,100.128,M,36.772,M,3.8,0022*49
[2021-02-23 09:30:27.547] $GPGGA,003026.90,3714.00536320,N,13701.48847265,E,4,09,1.0,100.159,M,36.772,M,3.9,0022*42
[2021-02-23 09:30:27.656] $GPGGA,003027.00,3714.00533107,N,13701.48846624,E,4,09,1.0,100.132,M,36.772,M,4.0,0022*4B
[2021-02-23 09:30:27.750] $GPGGA,003027.10,3714.00529956,N,13701.48846045,E,4,09,1.0,100.139,M,36.772,M,4.1,0022*46
[2021-02-23 09:30:27.844] $GPGGA,003027.20,3714.00526231,N,13701.48844169,E,4,09,1.0,100.128,M,36.772,M,4.2,0022*4E
[2021-02-23 09:30:27.937] $GPGGA,003027.30,3714.00523226,N,13701.48842421,E,4,09,1.0,100.122,M,36.772,M,4.3,0022*48
[2021-02-23 09:30:28.047] $GPGGA,003027.40,3714.00520099,N,13701.48840917,E,4,09,1.0,100.161,M,36.772,M,4.4,0022*40
[2021-02-23 09:30:28.141] $GPGGA,003027.50,3714.00517700,N,13701.48839121,E,4,09,1.0,100.144,M,36.772,M,4.5,0022*47
[2021-02-23 09:30:28.250] $GPGGA,003027.60,3714.00515319,N,13701.48837326,E,4,09,1.0,100.169,M,36.772,M,4.6,0022*4D
[2021-02-23 09:30:28.344] $GPGGA,003027.70,3714.00513277,N,13701.48833988,E,4,09,1.0,100.149,M,36.772,M,4.7,0022*4A
[2021-02-23 09:30:28.453] $GPGGA,003027.80,3714.00511626,N,13701.48831313,E,4,09,1.0,100.153,M,36.772,M,4.8,0022*49
[2021-02-23 09:30:28.547] $GPGGA,003027.90,3714.00511043,N,13701.48826355,E,4,09,1.0,100.122,M,36.772,M,4.9,0022*4E
[2021-02-23 09:30:28.656] $GPGGA,003028.00,3714.00507913,N,13701.48823258,E,4,09,1.0,100.093,M,36.772,M,5.0,0022*49
[2021-02-23 09:30:28.750] $GPGGA,003028.10,3714.00504829,N,13701.48819934,E,4,09,1.0,100.114,M,36.772,M,5.1,0022*44
[2021-02-23 09:30:28.859] $GPGGA,003028.20,3714.00501178,N,13701.48817272,E,4,09,1.0,100.131,M,36.772,M,5.2,0022*4C
[2021-02-23 09:30:28.937] $GPGGA,003028.30,3714.00498845,N,13701.48816289,E,4,09,1.0,100.139,M,36.772,M,5.3,0022*47
[2021-02-23 09:30:29.047] $GPGGA,003028.40,3714.00497215,N,13701.48814875,E,4,09,1.0,100.165,M,36.772,M,5.4,0022*45
[2021-02-23 09:30:29.141] $GPGGA,003028.50,3714.00495865,N,13701.48813100,E,4,09,1.0,100.180,M,36.772,M,5.5,0022*4D
[2021-02-23 09:30:29.250] $GPGGA,003028.60,3714.00495146,N,13701.48812648,E,4,09,1.0,100.158,M,36.772,M,5.6,0022*4A
[2021-02-23 09:30:29.344] $GPGGA,003028.70,3714.00492798,N,13701.48810629,E,4,09,1.0,100.170,M,36.772,M,5.7,0022*47
[2021-02-23 09:30:29.453] $GPGGA,003028.80,3714.00489211,N,13701.48811238,E,4,09,1.0,100.185,M,36.772,M,5.8,0022*46
[2021-02-23 09:30:29.547] $GPGGA,003028.90,3714.00486637,N,13701.48810858,E,4,09,1.0,100.188,M,36.772,M,5.9,0022*49
[2021-02-23 09:30:29.656] $GPGGA,003029.00,3714.00485434,N,13701.48810840,E,4,09,1.0,100.205,M,36.772,M,6.0,0022*46
[2021-02-23 09:30:29.750] $GPGGA,003029.10,3714.00483493,N,13701.48809899,E,4,09,1.0,100.204,M,36.772,M,6.1,0022*40
[2021-02-23 09:30:29.859] $GPGGA,003029.20,3714.00480986,N,13701.48809589,E,4,09,1.0,100.162,M,36.772,M,6.2,0022*45
[2021-02-23 09:30:29.937] $GPGGA,003029.30,3714.00476957,N,13701.48809202,E,4,09,1.0,100.162,M,36.772,M,6.3,0022*44
[2021-02-23 09:30:30.047] $GPGGA,003029.40,3714.00472379,N,13701.48810254,E,4,09,1.0,100.149,M,36.772,M,6.4,0022*44
[2021-02-23 09:30:30.140] $GPGGA,003029.50,3714.00466583,N,13701.48810969,E,4,09,1.0,100.158,M,36.772,M,6.5,0022*47
[2021-02-23 09:30:30.250] $GPGGA,003029.60,3714.00461044,N,13701.48812240,E,4,09,1.0,100.173,M,36.772,M,6.6,0022*45
[2021-02-23 09:30:30.344] $GPGGA,003029.70,3714.00456288,N,13701.48812878,E,4,09,1.0,100.175,M,36.772,M,6.7,0022*44
[2021-02-23 09:30:30.453] $GPGGA,003029.80,3714.00452405,N,13701.48813981,E,4,09,1.0,100.175,M,36.772,M,6.8,0022*45
[2021-02-23 09:30:30.547] $GPGGA,003029.90,3714.00448659,N,13701.48814196,E,4,09,1.0,100.180,M,36.772,M,6.9,0022*46
[2021-02-23 09:30:30.656] $GPGGA,003030.00,3714.00444810,N,13701.48813578,E,4,09,1.0,100.161,M,36.772,M,7.0,0022*4C
[2021-02-23 09:30:30.750] $GPGGA,003030.10,3714.00441427,N,13701.48811897,E,4,09,1.0,100.144,M,36.772,M,7.1,0022*48
[2021-02-23 09:30:30.844] $GPGGA,003030.20,3714.00437904,N,13701.48810123,E,4,09,1.0,100.154,M,36.772,M,7.2,0022*43
[2021-02-23 09:30:30.937] $GPGGA,003030.30,3714.00434994,N,13701.48808993,E,4,09,1.0,100.169,M,36.772,M,7.3,0022*4D
[2021-02-23 09:30:31.047] $GPGGA,003030.40,3714.00433335,N,13701.48807795,E,4,09,1.0,100.191,M,36.772,M,7.4,0022*4B
[2021-02-23 09:30:31.140] $GPGGA,003030.50,3714.00431300,N,13701.48807251,E,4,09,1.0,100.187,M,36.772,M,7.5,0022*45
[2021-02-23 09:30:31.250] $GPGGA,003030.60,3714.00430255,N,13701.48806148,E,4,09,1.0,100.184,M,36.772,M,7.6,0022*4C
[2021-02-23 09:30:31.343] $GPGGA,003030.70,3714.00428561,N,13701.48803533,E,4,09,1.0,100.177,M,36.772,M,7.7,0022*44
[2021-02-23 09:30:31.453] $GPGGA,003030.80,3714.00426293,N,13701.48800753,E,4,09,1.0,100.173,M,36.772,M,7.8,0022*43
[2021-02-23 09:30:31.547] $GPGGA,003030.90,3714.00423742,N,13701.48797687,E,4,09,1.0,100.162,M,36.772,M,7.9,0022*46
[2021-02-23 09:30:31.656] $GPGGA,003031.00,3714.00421341,N,13701.48794587,E,4,09,1.0,100.140,M,36.772,M,8.0,0022*4D
[2021-02-23 09:30:31.750] $GPGGA,003031.10,3714.00418632,N,13701.48791144,E,4,09,1.0,100.145,M,36.772,M,8.1,0022*4D
[2021-02-23 09:30:31.843] $GPGGA,003031.20,3714.00416254,N,13701.48786848,E,4,09,1.0,100.139,M,36.772,M,7.2,0022*40
[2021-02-23 09:30:31.937] $GPGGA,003031.30,3714.00414762,N,13701.48783051,E,4,09,1.0,100.157,M,36.772,M,7.3,0022*4F
[2021-02-23 09:30:32.047] $GPGGA,003031.40,3714.00412968,N,13701.48780269,E,4,09,1.0,100.178,M,36.772,M,7.4,0022*4A
[2021-02-23 09:30:32.140] $GPGGA,003031.50,3714.00411758,N,13701.48777705,E,4,09,1.0,100.174,M,36.772,M,7.5,0022*4F
[2021-02-23 09:30:32.250] $GPGGA,003031.60,3714.00410381,N,13701.48775087,E,4,09,1.0,100.163,M,36.772,M,7.6,0022*47
[2021-02-23 09:30:32.343] $GPGGA,003031.70,3714.00409363,N,13701.48773210,E,4,09,1.0,100.160,M,36.772,M,7.7,0022*4A
[2021-02-23 09:30:32.453] $GPGGA,003031.80,3714.00408086,N,13701.48771954,E,4,09,1.0,100.170,M,36.772,M,7.8,0022*4B
[2021-02-23 09:30:32.547] $GPGGA,003031.90,3714.00405965,N,13701.48770984,E,4,09,1.0,100.167,M,36.772,M,7.9,0022*48
[2021-02-23 09:30:32.640] $GPGGA,003032.00,3714.00403620,N,13701.48770281,E,4,09,1.0,100.177,M,36.772,M,8.0,0022*43
[2021-02-23 09:30:32.734] $GPGGA,003032.10,3714.00400882,N,13701.48769821,E,4,09,1.0,100.156,M,36.772,M,8.1,0022*4D
[2021-02-23 09:30:32.859] $GPGGA,003032.20,3714.00397648,N,13701.48768977,E,4,09,1.0,100.129,M,36.772,M,8.2,0022*47
[2021-02-23 09:30:32.937] $GPGGA,003032.30,3714.00393001,N,13701.48768460,E,4,09,1.0,100.112,M,36.772,M,8.3,0022*4B
[2021-02-23 09:30:33.046] $GPGGA,003032.40,3714.00387382,N,13701.48768460,E,4,09,1.0,100.102,M,36.772,M,8.4,0022*47
[2021-02-23 09:30:33.140] $GPGGA,003032.50,3714.00382941,N,13701.48768503,E,4,09,1.0,100.100,M,36.772,M,8.5,0022*41
[2021-02-23 09:30:33.250] $GPGGA,003032.60,3714.00378719,N,13701.48769440,E,4,09,1.0,100.105,M,36.772,M,8.6,0022*45
[2021-02-23 09:30:33.343] $GPGGA,003032.70,3714.00375175,N,13701.48770899,E,4,09,1.0,100.096,M,36.772,M,8.7,0022*4F
[2021-02-23 09:30:33.453] $GPGGA,003032.80,3714.00372298,N,13701.48771859,E,4,09,1.0,100.072,M,36.772,M,8.8,0022*4F
[2021-02-23 09:30:33.546] $GPGGA,003032.90,3714.00368987,N,13701.48771094,E,4,09,1.0,100.049,M,36.772,M,8.9,0022*40
[2021-02-23 09:30:33.656] $GPGGA,003033.00,3714.00365566,N,13701.48770311,E,4,09,1.0,100.046,M,36.772,M,9.0,0022*4E
[2021-02-23 09:30:33.750] $GPGGA,003033.10,3714.00362147,N,13701.48769248,E,4,09,1.0,100.045,M,36.772,M,9.1,0022*48
[2021-02-23 09:30:33.843] $GPGGA,003033.20,3714.00358444,N,13701.48767037,E,4,09,1.0,100.016,M,36.772,M,9.2,0022*45
[2021-02-23 09:30:33.937] $GPGGA,003033.30,3714.00355240,N,13701.48765071,E,4,09,1.0,100.006,M,36.772,M,9.3,0022*4B
[2021-02-23 09:30:34.046] $GPGGA,003033.40,3714.00352049,N,13701.48765007,E,4,09,1.0,100.016,M,36.772,M,9.4,0022*47
[2021-02-23 09:30:34.140] $GPGGA,003033.50,3714.00348516,N,13701.48765372,E,4,09,1.0,100.008,M,36.772,M,9.5,0022*4D
[2021-02-23 09:30:34.250] $GPGGA,003033.60,3714.00344680,N,13701.48766393,E,4,09,1.0,99.988,M,36.772,M,9.6,0022*71
[2021-02-23 09:30:34.343] $GPGGA,003033.70,3714.00340967,N,13701.48767043,E,4,09,1.0,99.977,M,36.772,M,9.7,0022*7C
[2021-02-23 09:30:34.453] $GPGGA,003033.80,3714.00337588,N,13701.48767153,E,4,09,1.0,99.957,M,36.772,M,9.8,0022*73
[2021-02-23 09:30:34.546] $GPGGA,003033.90,3714.00334139,N,13701.48767157,E,4,09,1.0,99.976,M,36.772,M,9.9,0022*79
[2021-02-23 09:30:34.656] $GPGGA,003034.00,3714.00331992,N,13701.48765489,E,4,09,1.0,99.970,M,36.772,M,10.0,0022*48
[2021-02-23 09:30:34.749] $GPGGA,003034.10,3714.00330327,N,13701.48766885,E,2,09,1.0,99.563,M,36.772,M,10.0,0022*47
[2021-02-23 09:30:34.843] $GPGGA,003034.20,3714.00328252,N,13701.48765656,E,2,09,1.0,99.557,M,36.772,M,10.2,0022*48
[2021-02-23 09:30:34.937] $GPGGA,003034.30,3714.00326001,N,13701.48764299,E,2,09,1.0,99.538,M,36.772,M,10.2,0022*4C
[2021-02-23 09:30:35.046] $GPGGA,003034.40,3714.00324149,N,13701.48762218,E,2,09,1.0,99.504,M,36.772,M,10.4,0022*42
[2021-02-23 09:30:35.140] $GPGGA,003034.50,3714.00322105,N,13701.48760220,E,2,09,1.0,99.491,M,36.772,M,10.4,0022*49
[2021-02-23 09:30:35.249] $GPGGA,003034.60,3714.00320120,N,13701.48757644,E,2,09,1.0,99.477,M,36.772,M,10.6,0022*47
[2021-02-23 09:30:35.343] $GPGGA,003034.70,3714.00318457,N,13701.48755958,E,2,09,1.0,99.467,M,36.772,M,10.6,0022*49
[2021-02-23 09:30:35.453] $GPGGA,003034.80,3714.00316632,N,13701.48754494,E,2,09,1.0,99.473,M,36.772,M,10.8,0022*4E
[2021-02-23 09:30:35.546] $GPGGA,003034.90,3714.00314372,N,13701.48753298,E,2,08,1.0,99.471,M,36.772,M,10.8,0022*42
[2021-02-23 09:30:35.656] $GPGGA,003035.00,3714.00311930,N,13701.48753448,E,2,09,1.0,99.449,M,36.772,M,11.0,0022*4B
[2021-02-23 09:30:35.734] $GPGGA,003035.10,3714.00308589,N,13701.48753754,E,2,09,1.0,99.436,M,36.772,M,11.0,0022*4A
[2021-02-23 09:30:35.843] $GPGGA,003035.20,3714.00304858,N,13701.48755026,E,2,09,1.0,99.427,M,36.772,M,11.2,0022*42
[2021-02-23 09:30:35.937] $GPGGA,003035.30,3714.00301608,N,13701.48755175,E,2,09,1.0,99.433,M,36.772,M,11.2,0022*4F
[2021-02-23 09:30:36.046] $GPGGA,003035.40,3714.00298034,N,13701.48755791,E,2,09,1.0,99.433,M,36.772,M,11.4,0022*4A
[2021-02-23 09:30:36.140] $GPGGA,003035.50,3714.00295527,N,13701.48755874,E,2,09,1.0,99.424,M,36.772,M,11.4,0022*43
[2021-02-23 09:30:36.249] $GPGGA,003035.60,3714.00293373,N,13701.48755536,E,2,09,1.0,99.417,M,36.772,M,11.6,0022*48
[2021-02-23 09:30:36.343] $GPGGA,003035.70,3714.00290944,N,13701.48754674,E,2,09,1.0,99.403,M,36.772,M,11.6,0022*45
[2021-02-23 09:30:36.452] $GPGGA,003035.80,3714.00288961,N,13701.48753426,E,2,09,1.0,99.384,M,36.772,M,11.8,0022*40
[2021-02-23 09:30:36.546] $GPGGA,003035.90,3714.00286593,N,13701.48751614,E,2,09,1.0,99.380,M,36.772,M,11.8,0022*4B
[2021-02-23 09:30:36.656] $GPGGA,003036.00,3714.00284546,N,13701.48749330,E,2,09,1.0,99.375,M,36.772,M,12.0,0022*40
[2021-02-23 09:30:36.734] $GPGGA,003036.10,3714.00282668,N,13701.48747795,E,2,09,1.0,99.373,M,36.772,M,12.0,0022*4B
[2021-02-23 09:30:36.843] $GPGGA,003036.20,3714.00280516,N,13701.48746055,E,2,09,1.0,99.373,M,36.772,M,12.2,0022*48
[2021-02-23 09:30:36.937] $GPGGA,003036.30,3714.00278495,N,13701.48744255,E,2,09,1.0,99.358,M,36.772,M,12.2,0022*4D
[2021-02-23 09:30:37.046] $GPGGA,003036.40,3714.00276345,N,13701.48742479,E,2,09,1.0,99.350,M,36.772,M,12.4,0022*4E
[2021-02-23 09:30:37.140] $GPGGA,003036.50,3714.00273737,N,13701.48741970,E,2,09,1.0,99.351,M,36.772,M,12.4,0022*4D
[2021-02-23 09:30:37.249] $GPGGA,003036.60,3714.00270992,N,13701.48741976,E,2,09,1.0,99.330,M,36.772,M,12.6,0022*4F
[2021-02-23 09:30:37.343] $GPGGA,003036.70,3714.00268289,N,13701.48740828,E,2,09,1.0,99.336,M,36.772,M,12.6,0022*4B
[2021-02-23 09:30:37.452] $GPGGA,003036.80,3714.00265108,N,13701.48739413,E,2,09,1.0,99.345,M,36.772,M,12.8,0022*43
[2021-02-23 09:30:37.546] $GPGGA,003036.90,3714.00262255,N,13701.48737010,E,2,09,1.0,99.342,M,36.772,M,12.8,0022*40
[2021-02-23 09:30:37.656] $GPGGA,003037.00,3714.00259507,N,13701.48733839,E,2,09,1.0,99.334,M,36.772,M,13.0,0022*4F
[2021-02-23 09:30:37.734] $GPGGA,003037.10,3714.00256761,N,13701.48730477,E,2,09,1.0,99.315,M,36.772,M,13.0,0022*45
[2021-02-23 09:30:37.843] $GPGGA,003037.20,3714.00255081,N,13701.48725273,E,2,09,1.0,99.277,M,36.772,M,13.2,0022*4D
[2021-02-23 09:30:37.937] $GPGGA,003037.30,3714.00254008,N,13701.48719862,E,2,09,1.0,99.280,M,36.772,M,13.2,0022*41
[2021-02-23 09:30:38.046] $GPGGA,003037.40,3714.00253566,N,13701.48713365,E,2,09,1.0,99.256,M,36.772,M,13.4,0022*47
[2021-02-23 09:30:38.140] $GPGGA,003037.50,3714.00252539,N,13701.48707977,E,2,09,1.0,99.245,M,36.772,M,13.4,0022*43
[2021-02-23 09:30:38.249] $GPGGA,003037.60,3714.00252010,N,13701.48703039,E,2,09,1.0,99.251,M,36.772,M,13.6,0022*4E
[2021-02-23 09:30:38.343] $GPGGA,003037.70,3714.00251382,N,13701.48698157,E,2,09,1.0,99.231,M,36.772,M,13.6,0022*48
[2021-02-23 09:30:38.452] $GPGGA,003037.80,3714.00249951,N,13701.48695344,E,2,09,1.0,99.202,M,36.772,M,13.8,0022*49
[2021-02-23 09:30:38.546] $GPGGA,003037.90,3714.00248317,N,13701.48692048,E,2,09,1.0,99.204,M,36.772,M,13.8,0022*4F
[2021-02-23 09:30:38.655] $GPGGA,003038.00,3714.00246558,N,13701.48690489,E,2,09,1.0,99.204,M,36.772,M,14.0,0022*4E
[2021-02-23 09:30:38.734] $GPGGA,003038.10,3714.00245383,N,13701.48688959,E,2,09,1.0,99.199,M,36.772,M,14.0,0022*42
[2021-02-23 09:30:38.843] $GPGGA,003038.20,3714.00244716,N,13701.48689138,E,2,09,1.0,99.206,M,36.772,M,14.2,0022*41
[2021-02-23 09:30:38.937] $GPGGA,003038.30,3714.00244928,N,13701.48689246,E,2,09,1.0,99.205,M,36.772,M,14.2,0022*4A
[2021-02-23 09:30:39.046] $GPGGA,003038.40,3714.00245786,N,13701.48690732,E,2,09,1.0,99.212,M,36.772,M,14.4,0022*48
[2021-02-23 09:30:39.140] $GPGGA,003038.50,3714.00246346,N,13701.48691822,E,2,09,1.0,99.217,M,36.772,M,14.4,0022*48
[2021-02-23 09:30:39.249] $GPGGA,003038.60,3714.00246740,N,13701.48694795,E,2,09,1.0,99.224,M,36.772,M,2.6,0022*7A
[2021-02-23 09:30:39.343] $GPGGA,003038.70,3714.00244874,N,13701.48696478,E,4,09,1.0,99.753,M,36.772,M,1.7,0022*72
[2021-02-23 09:30:39.452] $GPGGA,003038.80,3714.00244863,N,13701.48696181,E,4,09,1.0,99.757,M,36.772,M,0.8,0022*72
[2021-02-23 09:30:39.546] $GPGGA,003038.90,3714.00245070,N,13701.48697036,E,4,09,1.0,99.754,M,36.772,M,0.9,0022*76
[2021-02-23 09:30:39.655] $GPGGA,003039.00,3714.00245292,N,13701.48697458,E,4,09,1.0,99.752,M,36.772,M,1.0,0022*72
[2021-02-23 09:30:39.749] $GPGGA,003039.10,3714.00245955,N,13701.48698029,E,4,09,1.0,99.744,M,36.772,M,1.1,0022*78
[2021-02-23 09:30:39.859] $GPGGA,003039.20,3714.00246289,N,13701.48698180,E,4,09,1.0,99.749,M,36.772,M,1.2,0022*7E
[2021-02-23 09:30:39.937] $GPGGA,003039.30,3714.00246694,N,13701.48698223,E,4,09,1.0,99.743,M,36.772,M,1.3,0022*76
[2021-02-23 09:30:40.046] $GPGGA,003039.40,3714.00246699,N,13701.48698177,E,4,09,1.0,99.736,M,36.772,M,1.4,0022*7B
[2021-02-23 09:30:40.140] $GPGGA,003039.50,3714.00246649,N,13701.48698186,E,4,09,1.0,99.746,M,36.772,M,1.5,0022*7F
[2021-02-23 09:30:40.249] $GPGGA,003039.60,3714.00246325,N,13701.48698562,E,4,09,1.0,99.739,M,36.772,M,1.6,0022*76
[2021-02-23 09:30:40.343] $GPGGA,003039.70,3714.00245958,N,13701.48699041,E,4,09,1.0,99.750,M,36.772,M,1.7,0022*7F
[2021-02-23 09:30:40.452] $GPGGA,003039.80,3714.00245258,N,13701.48699869,E,4,09,1.0,99.746,M,36.772,M,0.8,0022*70
[2021-02-23 09:30:40.546] $GPGGA,003039.90,3714.00244490,N,13701.48700937,E,4,09,1.0,99.754,M,36.772,M,0.9,0022*7B
[2021-02-23 09:30:40.655] $GPGGA,003040.00,3714.00243273,N,13701.48701921,E,4,09,1.0,99.756,M,36.772,M,1.0,0022*7C
[2021-02-23 09:30:40.749] $GPGGA,003040.10,3714.00240783,N,13701.48703102,E,4,09,1.0,99.768,M,36.772,M,1.1,0022*73
[2021-02-23 09:30:40.843] $GPGGA,003040.20,3714.00238298,N,13701.48703179,E,4,09,1.0,99.791,M,36.772,M,1.2,0022*79
